{"type":"FeatureCollection","metadata":{"source":"OpenStreetMap","license":"ODbL","fetchedAt":"2026-04-19T21:46:55.983Z","query":"amenity=hospital|clinic"},"features":[{"type":"Feature","id":"node/191815840","properties":{"id":"node/191815840","osmId":191815840,"osmType":"node","name":"Asiri Surgical Hospital","nameSi":null,"nameTa":null,"kind":"hospital","operator":null,"beds":null,"healthcare":"hospital"},"geometry":{"type":"Point","coordinates":[79.8797172,6.8945486]}},{"type":"Feature","id":"node/253022237","properties":{"id":"node/253022237","osmId":253022237,"osmType":"node","name":"Joseph Fraser Memorial Hospital","nameSi":null,"nameTa":null,"kind":"hospital","operator":null,"beds":null,"healthcare":"hospital"},"geometry":{"type":"Point","coordinates":[79.8652189,6.8952045]}},{"type":"Feature","id":"node/254367261","properties":{"id":"node/254367261","osmId":254367261,"osmType":"node","name":"Wethara District Hospital","nameSi":null,"nameTa":null,"kind":"hospital","operator":null,"beds":null,"healthcare":"hospital"},"geometry":{"type":"Point","coordinates":[79.9756303,6.7846239]}},{"type":"Feature","id":"node/255179653","properties":{"id":"node/255179653","osmId":255179653,"osmType":"node","name":"Sri Jayawardenapura teaching hospital","nameSi":null,"nameTa":null,"kind":"hospital","operator":null,"beds":null,"healthcare":"hospital"},"geometry":{"type":"Point","coordinates":[79.9261518,6.8683337]}},{"type":"Feature","id":"node/310166807","properties":{"id":"node/310166807","osmId":310166807,"osmType":"node","name":"Co-op Hospital","nameSi":null,"nameTa":null,"kind":"hospital","operator":null,"beds":null,"healthcare":"hospital"},"geometry":{"type":"Point","coordinates":[80.2161531,6.0366488]}},{"type":"Feature","id":"node/617214076","properties":{"id":"node/617214076","osmId":617214076,"osmType":"node","name":"Divisional Hospital Thalangama","nameSi":null,"nameTa":null,"kind":"hospital","operator":null,"beds":null,"healthcare":"hospital"},"geometry":{"type":"Point","coordinates":[79.9285198,6.9062331]}},{"type":"Feature","id":"node/617262855","properties":{"id":"node/617262855","osmId":617262855,"osmType":"node","name":"Pannipitiya Nursing Home","nameSi":null,"nameTa":null,"kind":"hospital","operator":null,"beds":null,"healthcare":"hospital"},"geometry":{"type":"Point","coordinates":[79.9522616,6.8468216]}},{"type":"Feature","id":"node/618557052","properties":{"id":"node/618557052","osmId":618557052,"osmType":"node","name":"Western Hospital","nameSi":null,"nameTa":null,"kind":"hospital","operator":null,"beds":null,"healthcare":"hospital"},"geometry":{"type":"Point","coordinates":[79.8856356,6.9117052]}},{"type":"Feature","id":"node/618657478","properties":{"id":"node/618657478","osmId":618657478,"osmType":"node","name":"Dambulla General Provincial Hospital","nameSi":null,"nameTa":null,"kind":"hospital","operator":null,"beds":null,"healthcare":"hospital"},"geometry":{"type":"Point","coordinates":[80.650505,7.8728249]}},{"type":"Feature","id":"node/619735564","properties":{"id":"node/619735564","osmId":619735564,"osmType":"node","name":"Colombo General Hospital","nameSi":null,"nameTa":null,"kind":"hospital","operator":null,"beds":null,"healthcare":"hospital"},"geometry":{"type":"Point","coordinates":[79.8671954,6.9172436]}},{"type":"Feature","id":"node/619944442","properties":{"id":"node/619944442","osmId":619944442,"osmType":"node","name":"Nawinna Medicare Hospital","nameSi":null,"nameTa":null,"kind":"hospital","operator":null,"beds":null,"healthcare":"hospital"},"geometry":{"type":"Point","coordinates":[79.9143409,6.8546505]}},{"type":"Feature","id":"node/621183283","properties":{"id":"node/621183283","osmId":621183283,"osmType":"node","name":"Mulleriyawa Hospital","nameSi":null,"nameTa":null,"kind":"hospital","operator":null,"beds":null,"healthcare":null},"geometry":{"type":"Point","coordinates":[79.942918,6.9247709]}},{"type":"Feature","id":"node/621199761","properties":{"id":"node/621199761","osmId":621199761,"osmType":"node","name":"Hemas Hospital","nameSi":null,"nameTa":null,"kind":"hospital","operator":null,"beds":null,"healthcare":"hospital"},"geometry":{"type":"Point","coordinates":[79.8912101,6.9887373]}},{"type":"Feature","id":"node/621201132","properties":{"id":"node/621201132","osmId":621201132,"osmType":"node","name":"Hekitta Mental Hospital","nameSi":null,"nameTa":null,"kind":"hospital","operator":null,"beds":null,"healthcare":"hospital"},"geometry":{"type":"Point","coordinates":[79.8768982,6.98282]}},{"type":"Feature","id":"node/621201133","properties":{"id":"node/621201133","osmId":621201133,"osmType":"node","name":"Leprosy Hospital","nameSi":null,"nameTa":null,"kind":"hospital","operator":null,"beds":null,"healthcare":"hospital"},"geometry":{"type":"Point","coordinates":[79.8755142,6.9828093]}},{"type":"Feature","id":"node/621908264","properties":{"id":"node/621908264","osmId":621908264,"osmType":"node","name":"Siddhalepa","nameSi":null,"nameTa":null,"kind":"hospital","operator":null,"beds":null,"healthcare":"hospital"},"geometry":{"type":"Point","coordinates":[79.8773217,6.8311854]}},{"type":"Feature","id":"node/654172175","properties":{"id":"node/654172175","osmId":654172175,"osmType":"node","name":"Sulaiman","nameSi":null,"nameTa":null,"kind":"hospital","operator":null,"beds":null,"healthcare":"hospital"},"geometry":{"type":"Point","coordinates":[79.8658056,6.9420589]}},{"type":"Feature","id":"node/673927618","properties":{"id":"node/673927618","osmId":673927618,"osmType":"node","name":"Dehiwala Medical Centre","nameSi":null,"nameTa":null,"kind":"hospital","operator":null,"beds":null,"healthcare":"hospital"},"geometry":{"type":"Point","coordinates":[79.8664157,6.8607229]}},{"type":"Feature","id":"node/679004906","properties":{"id":"node/679004906","osmId":679004906,"osmType":"node","name":"McCarthy Private Hospital","nameSi":null,"nameTa":null,"kind":"hospital","operator":null,"beds":null,"healthcare":"hospital"},"geometry":{"type":"Point","coordinates":[79.8697567,6.9139635]}},{"type":"Feature","id":"node/681802896","properties":{"id":"node/681802896","osmId":681802896,"osmType":"node","name":"De Soysa Hospital for Women","nameSi":null,"nameTa":null,"kind":"hospital","operator":null,"beds":null,"healthcare":"hospital"},"geometry":{"type":"Point","coordinates":[79.8702449,6.9198065]}},{"type":"Feature","id":"node/844674876","properties":{"id":"node/844674876","osmId":844674876,"osmType":"node","name":"Kiribathgoda Base Hospital","nameSi":null,"nameTa":null,"kind":"hospital","operator":null,"beds":null,"healthcare":"hospital"},"geometry":{"type":"Point","coordinates":[79.9292155,6.9838357]}},{"type":"Feature","id":"node/844679663","properties":{"id":"node/844679663","osmId":844679663,"osmType":"node","name":"Lanka Pharmacy","nameSi":null,"nameTa":null,"kind":"hospital","operator":null,"beds":null,"healthcare":"hospital"},"geometry":{"type":"Point","coordinates":[79.9300631,6.9808166]}},{"type":"Feature","id":"node/873842128","properties":{"id":"node/873842128","osmId":873842128,"osmType":"node","name":"Nuwara Eliya General Hospital","nameSi":null,"nameTa":null,"kind":"hospital","operator":null,"beds":null,"healthcare":"hospital"},"geometry":{"type":"Point","coordinates":[80.7803117,6.9741095]}},{"type":"Feature","id":"node/929115028","properties":{"id":"node/929115028","osmId":929115028,"osmType":"node","name":"IDH Hospital","nameSi":null,"nameTa":null,"kind":"hospital","operator":null,"beds":null,"healthcare":null},"geometry":{"type":"Point","coordinates":[79.9165176,6.9226177]}},{"type":"Feature","id":"node/976674824","properties":{"id":"node/976674824","osmId":976674824,"osmType":"node","name":"Dental Surgery","nameSi":null,"nameTa":null,"kind":"hospital","operator":null,"beds":null,"healthcare":"hospital"},"geometry":{"type":"Point","coordinates":[79.8646684,6.9251045]}},{"type":"Feature","id":"node/1105822178","properties":{"id":"node/1105822178","osmId":1105822178,"osmType":"node","name":"Base Hospital","nameSi":null,"nameTa":null,"kind":"hospital","operator":null,"beds":null,"healthcare":null},"geometry":{"type":"Point","coordinates":[81.2685667,6.285]}},{"type":"Feature","id":"node/1134759577","properties":{"id":"node/1134759577","osmId":1134759577,"osmType":"node","name":"Lunuwila Hospital","nameSi":null,"nameTa":null,"kind":"hospital","operator":null,"beds":null,"healthcare":null},"geometry":{"type":"Point","coordinates":[79.861647,7.3486769]}},{"type":"Feature","id":"node/1138325216","properties":{"id":"node/1138325216","osmId":1138325216,"osmType":"node","name":"De Soysa Hospital","nameSi":null,"nameTa":null,"kind":"hospital","operator":null,"beds":null,"healthcare":"hospital"},"geometry":{"type":"Point","coordinates":[79.8776831,6.7840477]}},{"type":"Feature","id":"node/1148496061","properties":{"id":"node/1148496061","osmId":1148496061,"osmType":"node","name":"Chavakachcheri Base Hospital","nameSi":null,"nameTa":null,"kind":"hospital","operator":null,"beds":null,"healthcare":"hospital"},"geometry":{"type":"Point","coordinates":[80.1669594,9.6616371]}},{"type":"Feature","id":"node/1268340408","properties":{"id":"node/1268340408","osmId":1268340408,"osmType":"node","name":"Nawaloka Hospital","nameSi":null,"nameTa":null,"kind":"hospital","operator":null,"beds":null,"healthcare":"hospital"},"geometry":{"type":"Point","coordinates":[79.8497222,7.2092833]}},{"type":"Feature","id":"node/1292992413","properties":{"id":"node/1292992413","osmId":1292992413,"osmType":"node","name":"Arogya Gampaha","nameSi":null,"nameTa":null,"kind":"hospital","operator":null,"beds":null,"healthcare":null},"geometry":{"type":"Point","coordinates":[80.0005285,7.0906504]}},{"type":"Feature","id":"node/1304839120","properties":{"id":"node/1304839120","osmId":1304839120,"osmType":"node","name":"Rural Hospital Halgolla","nameSi":null,"nameTa":null,"kind":"hospital","operator":null,"beds":null,"healthcare":null},"geometry":{"type":"Point","coordinates":[80.3664892,7.0424521]}},{"type":"Feature","id":"node/1369179914","properties":{"id":"node/1369179914","osmId":1369179914,"osmType":"node","name":"Park Hospital","nameSi":null,"nameTa":null,"kind":"hospital","operator":null,"beds":null,"healthcare":"hospital"},"geometry":{"type":"Point","coordinates":[79.8725351,6.8872112]}},{"type":"Feature","id":"node/1370716555","properties":{"id":"node/1370716555","osmId":1370716555,"osmType":"node","name":"Chest Hospital Welisara","nameSi":null,"nameTa":null,"kind":"hospital","operator":null,"beds":null,"healthcare":null},"geometry":{"type":"Point","coordinates":[79.9029398,7.0242496]}},{"type":"Feature","id":"node/1370719663","properties":{"id":"node/1370719663","osmId":1370719663,"osmType":"node","name":"Browns Hospital","nameSi":null,"nameTa":null,"kind":"hospital","operator":null,"beds":null,"healthcare":null},"geometry":{"type":"Point","coordinates":[79.9206152,7.0277745]}},{"type":"Feature","id":"node/1370719682","properties":{"id":"node/1370719682","osmId":1370719682,"osmType":"node","name":"Kandana Base Hospital","nameSi":null,"nameTa":null,"kind":"hospital","operator":null,"beds":null,"healthcare":null},"geometry":{"type":"Point","coordinates":[79.9037391,7.0412386]}},{"type":"Feature","id":"node/1370722303","properties":{"id":"node/1370722303","osmId":1370722303,"osmType":"node","name":"Ranwwiru Sewana Hospital","nameSi":null,"nameTa":null,"kind":"hospital","operator":null,"beds":null,"healthcare":null},"geometry":{"type":"Point","coordinates":[79.9227398,7.023994]}},{"type":"Feature","id":"node/1378971845","properties":{"id":"node/1378971845","osmId":1378971845,"osmType":"node","name":"Dr Hazari Clinic","nameSi":null,"nameTa":null,"kind":"clinic","operator":null,"beds":null,"healthcare":"clinic"},"geometry":{"type":"Point","coordinates":[79.855999,6.8915098]}},{"type":"Feature","id":"node/1378977879","properties":{"id":"node/1378977879","osmId":1378977879,"osmType":"node","name":"Dr Muhsin - Dental Clinic","nameSi":null,"nameTa":null,"kind":"hospital","operator":null,"beds":null,"healthcare":"hospital"},"geometry":{"type":"Point","coordinates":[79.8604707,6.8957176]}},{"type":"Feature","id":"node/1378988156","properties":{"id":"node/1378988156","osmId":1378988156,"osmType":"node","name":"Neurology Ward","nameSi":null,"nameTa":null,"kind":"hospital","operator":null,"beds":null,"healthcare":"hospital"},"geometry":{"type":"Point","coordinates":[79.870419,6.9192775]}},{"type":"Feature","id":"node/1378988158","properties":{"id":"node/1378988158","osmId":1378988158,"osmType":"node","name":"Cardiac Ward","nameSi":null,"nameTa":null,"kind":"hospital","operator":null,"beds":null,"healthcare":"hospital"},"geometry":{"type":"Point","coordinates":[79.8696197,6.9206887]}},{"type":"Feature","id":"node/1378988163","properties":{"id":"node/1378988163","osmId":1378988163,"osmType":"node","name":"Accident Ward","nameSi":null,"nameTa":null,"kind":"hospital","operator":null,"beds":null,"healthcare":"hospital"},"geometry":{"type":"Point","coordinates":[79.8671977,6.9186997]}},{"type":"Feature","id":"node/1427183461","properties":{"id":"node/1427183461","osmId":1427183461,"osmType":"node","name":null,"nameSi":null,"nameTa":null,"kind":"hospital","operator":null,"beds":null,"healthcare":"hospital"},"geometry":{"type":"Point","coordinates":[80.4189122,5.9749081]}},{"type":"Feature","id":"node/1463832354","properties":{"id":"node/1463832354","osmId":1463832354,"osmType":"node","name":"Meegoda Ayurveda Hospital","nameSi":null,"nameTa":null,"kind":"hospital","operator":null,"beds":null,"healthcare":"alternative"},"geometry":{"type":"Point","coordinates":[80.042246,6.8461319]}},{"type":"Feature","id":"node/1477746216","properties":{"id":"node/1477746216","osmId":1477746216,"osmType":"node","name":null,"nameSi":null,"nameTa":null,"kind":"hospital","operator":null,"beds":null,"healthcare":null},"geometry":{"type":"Point","coordinates":[79.8993102,7.375189]}},{"type":"Feature","id":"node/1497165127","properties":{"id":"node/1497165127","osmId":1497165127,"osmType":"node","name":null,"nameSi":null,"nameTa":null,"kind":"hospital","operator":null,"beds":null,"healthcare":"hospital"},"geometry":{"type":"Point","coordinates":[80.2162698,6.0288675]}},{"type":"Feature","id":"node/1523693927","properties":{"id":"node/1523693927","osmId":1523693927,"osmType":"node","name":"Dental Institute","nameSi":null,"nameTa":null,"kind":"hospital","operator":null,"beds":null,"healthcare":"hospital"},"geometry":{"type":"Point","coordinates":[79.9286112,6.8457107]}},{"type":"Feature","id":"node/1529255501","properties":{"id":"node/1529255501","osmId":1529255501,"osmType":"node","name":"OPD","nameSi":null,"nameTa":null,"kind":"clinic","operator":null,"beds":null,"healthcare":null},"geometry":{"type":"Point","coordinates":[79.9242416,7.0286065]}},{"type":"Feature","id":"node/1617955806","properties":{"id":"node/1617955806","osmId":1617955806,"osmType":"node","name":"Dissanayake Private Hospital Negombo","nameSi":null,"nameTa":null,"kind":"hospital","operator":null,"beds":null,"healthcare":"hospital"},"geometry":{"type":"Point","coordinates":[79.8536244,7.2012053]}},{"type":"Feature","id":"node/1640241532","properties":{"id":"node/1640241532","osmId":1640241532,"osmType":"node","name":"Rural Hospital","nameSi":null,"nameTa":null,"kind":"hospital","operator":null,"beds":null,"healthcare":null},"geometry":{"type":"Point","coordinates":[80.4541208,5.9531215]}},{"type":"Feature","id":"node/1650226106","properties":{"id":"node/1650226106","osmId":1650226106,"osmType":"node","name":"Ayurveda Corporation","nameSi":null,"nameTa":null,"kind":"hospital","operator":null,"beds":null,"healthcare":"hospital"},"geometry":{"type":"Point","coordinates":[79.9176997,6.855884]}},{"type":"Feature","id":"node/1650227458","properties":{"id":"node/1650227458","osmId":1650227458,"osmType":"node","name":"Nursing Home","nameSi":null,"nameTa":null,"kind":"hospital","operator":null,"beds":null,"healthcare":"hospital"},"geometry":{"type":"Point","coordinates":[79.9215162,6.8507988]}},{"type":"Feature","id":"node/1662139981","properties":{"id":"node/1662139981","osmId":1662139981,"osmType":"node","name":"Asia Hospital","nameSi":null,"nameTa":null,"kind":"hospital","operator":null,"beds":null,"healthcare":"hospital"},"geometry":{"type":"Point","coordinates":[79.92922,6.8453097]}},{"type":"Feature","id":"node/1722822880","properties":{"id":"node/1722822880","osmId":1722822880,"osmType":"node","name":"Okkampitiya Rural Hospital","nameSi":null,"nameTa":null,"kind":"hospital","operator":null,"beds":null,"healthcare":null},"geometry":{"type":"Point","coordinates":[81.3005801,6.7554682]}},{"type":"Feature","id":"node/1731515251","properties":{"id":"node/1731515251","osmId":1731515251,"osmType":"node","name":"Sooriya Medical Center","nameSi":null,"nameTa":null,"kind":"hospital","operator":null,"beds":null,"healthcare":null},"geometry":{"type":"Point","coordinates":[79.8228174,7.906233]}},{"type":"Feature","id":"node/1736854509","properties":{"id":"node/1736854509","osmId":1736854509,"osmType":"node","name":"Katugampala Weda Madura","nameSi":null,"nameTa":null,"kind":"hospital","operator":null,"beds":null,"healthcare":null},"geometry":{"type":"Point","coordinates":[79.9633446,6.8124463]}},{"type":"Feature","id":"node/1744023357","properties":{"id":"node/1744023357","osmId":1744023357,"osmType":"node","name":"District Hospital, Kataragama","nameSi":null,"nameTa":null,"kind":"hospital","operator":null,"beds":null,"healthcare":null},"geometry":{"type":"Point","coordinates":[81.3388947,6.4126218]}},{"type":"Feature","id":"node/1796819687","properties":{"id":"node/1796819687","osmId":1796819687,"osmType":"node","name":"Padukka Base Hospital","nameSi":null,"nameTa":null,"kind":"hospital","operator":null,"beds":null,"healthcare":null},"geometry":{"type":"Point","coordinates":[80.0896596,6.8400553]}},{"type":"Feature","id":"node/1796922719","properties":{"id":"node/1796922719","osmId":1796922719,"osmType":"node","name":"Base Hospital","nameSi":null,"nameTa":null,"kind":"hospital","operator":null,"beds":null,"healthcare":null},"geometry":{"type":"Point","coordinates":[80.1789289,6.6451235]}},{"type":"Feature","id":"node/1796922986","properties":{"id":"node/1796922986","osmId":1796922986,"osmType":"node","name":"Athura Hospital","nameSi":null,"nameTa":null,"kind":"hospital","operator":null,"beds":null,"healthcare":null},"geometry":{"type":"Point","coordinates":[80.1794385,6.6448198]}},{"type":"Feature","id":"node/1805745347","properties":{"id":"node/1805745347","osmId":1805745347,"osmType":"node","name":"Karawanella Base Hospital","nameSi":null,"nameTa":null,"kind":"hospital","operator":null,"beds":null,"healthcare":null},"geometry":{"type":"Point","coordinates":[80.261432,7.0245178]}},{"type":"Feature","id":"node/1814595125","properties":{"id":"node/1814595125","osmId":1814595125,"osmType":"node","name":"Hambantota General Hospital","nameSi":null,"nameTa":null,"kind":"hospital","operator":null,"beds":null,"healthcare":"hospital"},"geometry":{"type":"Point","coordinates":[81.1224549,6.1271953]}},{"type":"Feature","id":"node/1818503771","properties":{"id":"node/1818503771","osmId":1818503771,"osmType":"node","name":"Ambalantota Hospital","nameSi":null,"nameTa":null,"kind":"hospital","operator":null,"beds":null,"healthcare":null},"geometry":{"type":"Point","coordinates":[81.0220545,6.1147035]}},{"type":"Feature","id":"node/1818771616","properties":{"id":"node/1818771616","osmId":1818771616,"osmType":"node","name":"Diyatalawa Base Hospital","nameSi":null,"nameTa":null,"kind":"hospital","operator":null,"beds":null,"healthcare":"hospital"},"geometry":{"type":"Point","coordinates":[80.9571343,6.8055733]}},{"type":"Feature","id":"node/1819855346","properties":{"id":"node/1819855346","osmId":1819855346,"osmType":"node","name":"Ettampitiya Base Hospital","nameSi":null,"nameTa":null,"kind":"hospital","operator":null,"beds":null,"healthcare":null},"geometry":{"type":"Point","coordinates":[80.9899055,6.9346877]}},{"type":"Feature","id":"node/1822725595","properties":{"id":"node/1822725595","osmId":1822725595,"osmType":"node","name":"Phillip Hospital","nameSi":null,"nameTa":null,"kind":"hospital","operator":null,"beds":null,"healthcare":"hospital"},"geometry":{"type":"Point","coordinates":[79.9629869,6.5793909]}},{"type":"Feature","id":"node/1823709276","properties":{"id":"node/1823709276","osmId":1823709276,"osmType":"node","name":"Teaching Hospital Kalutara","nameSi":null,"nameTa":null,"kind":"hospital","operator":null,"beds":null,"healthcare":"hospital"},"geometry":{"type":"Point","coordinates":[79.9852435,6.5630625]}},{"type":"Feature","id":"node/1830413983","properties":{"id":"node/1830413983","osmId":1830413983,"osmType":"node","name":"Dickoya Base Hospital","nameSi":null,"nameTa":null,"kind":"hospital","operator":null,"beds":null,"healthcare":null},"geometry":{"type":"Point","coordinates":[80.6002986,6.8548993]}},{"type":"Feature","id":"node/1830502778","properties":{"id":"node/1830502778","osmId":1830502778,"osmType":"node","name":"Suwa Bawana Hospital","nameSi":null,"nameTa":null,"kind":"hospital","operator":null,"beds":null,"healthcare":null},"geometry":{"type":"Point","coordinates":[80.5735309,7.1639499]}},{"type":"Feature","id":"node/1831898507","properties":{"id":"node/1831898507","osmId":1831898507,"osmType":"node","name":"Hemmathagama Hospital","nameSi":null,"nameTa":null,"kind":"hospital","operator":null,"beds":null,"healthcare":"hospital"},"geometry":{"type":"Point","coordinates":[80.5015841,7.1733007]}},{"type":"Feature","id":"node/1831954351","properties":{"id":"node/1831954351","osmId":1831954351,"osmType":"node","name":"Rural Hospital","nameSi":null,"nameTa":null,"kind":"hospital","operator":null,"beds":null,"healthcare":null},"geometry":{"type":"Point","coordinates":[80.564435,7.1061708]}},{"type":"Feature","id":"node/1838419646","properties":{"id":"node/1838419646","osmId":1838419646,"osmType":"node","name":"Medi Clinic wellawatte","nameSi":null,"nameTa":null,"kind":"hospital","operator":null,"beds":null,"healthcare":"hospital"},"geometry":{"type":"Point","coordinates":[79.8599713,6.878155]}},{"type":"Feature","id":"node/1839459849","properties":{"id":"node/1839459849","osmId":1839459849,"osmType":"node","name":"Ratnam's","nameSi":null,"nameTa":null,"kind":"hospital","operator":null,"beds":null,"healthcare":"hospital"},"geometry":{"type":"Point","coordinates":[79.8568546,6.9211084]}},{"type":"Feature","id":"node/1843565879","properties":{"id":"node/1843565879","osmId":1843565879,"osmType":"node","name":"Biyagama Hospital","nameSi":null,"nameTa":null,"kind":"hospital","operator":null,"beds":null,"healthcare":null},"geometry":{"type":"Point","coordinates":[79.9939404,6.9469426]}},{"type":"Feature","id":"node/1846323739","properties":{"id":"node/1846323739","osmId":1846323739,"osmType":"node","name":null,"nameSi":null,"nameTa":null,"kind":"hospital","operator":null,"beds":null,"healthcare":null},"geometry":{"type":"Point","coordinates":[80.6018991,5.9637929]}},{"type":"Feature","id":"node/1856812558","properties":{"id":"node/1856812558","osmId":1856812558,"osmType":"node","name":"Wanniarachchi Medical Center","nameSi":null,"nameTa":null,"kind":"hospital","operator":null,"beds":null,"healthcare":null},"geometry":{"type":"Point","coordinates":[80.2378677,7.2950405]}},{"type":"Feature","id":"node/1867157681","properties":{"id":"node/1867157681","osmId":1867157681,"osmType":"node","name":"Mahawa Base Hospital","nameSi":null,"nameTa":null,"kind":"hospital","operator":null,"beds":null,"healthcare":"hospital"},"geometry":{"type":"Point","coordinates":[80.2824677,7.8235267]}},{"type":"Feature","id":"node/1877385268","properties":{"id":"node/1877385268","osmId":1877385268,"osmType":"node","name":"Inginiyagala Divisional Hospital","nameSi":null,"nameTa":null,"kind":"hospital","operator":null,"beds":null,"healthcare":null},"geometry":{"type":"Point","coordinates":[81.5421294,7.2262613]}},{"type":"Feature","id":"node/1932028147","properties":{"id":"node/1932028147","osmId":1932028147,"osmType":"node","name":"Walasmulla","nameSi":null,"nameTa":null,"kind":"hospital","operator":null,"beds":null,"healthcare":"hospital"},"geometry":{"type":"Point","coordinates":[80.6981565,6.1496815]}},{"type":"Feature","id":"node/1933478833","properties":{"id":"node/1933478833","osmId":1933478833,"osmType":"node","name":"Kirama","nameSi":null,"nameTa":null,"kind":"hospital","operator":null,"beds":null,"healthcare":null},"geometry":{"type":"Point","coordinates":[80.6684374,6.2067106]}},{"type":"Feature","id":"node/1945644723","properties":{"id":"node/1945644723","osmId":1945644723,"osmType":"node","name":"District Hospital Passara","nameSi":null,"nameTa":null,"kind":"hospital","operator":null,"beds":null,"healthcare":null},"geometry":{"type":"Point","coordinates":[81.1524924,6.9335724]}},{"type":"Feature","id":"node/1960904428","properties":{"id":"node/1960904428","osmId":1960904428,"osmType":"node","name":"Medical Center","nameSi":null,"nameTa":null,"kind":"hospital","operator":null,"beds":null,"healthcare":"hospital"},"geometry":{"type":"Point","coordinates":[81.0486572,6.8740488]}},{"type":"Feature","id":"node/1974694453","properties":{"id":"node/1974694453","osmId":1974694453,"osmType":"node","name":"Mahiyanganaya Base Hospital","nameSi":null,"nameTa":null,"kind":"hospital","operator":null,"beds":null,"healthcare":"hospital"},"geometry":{"type":"Point","coordinates":[80.9907893,7.3261607]}},{"type":"Feature","id":"node/1976145973","properties":{"id":"node/1976145973","osmId":1976145973,"osmType":"node","name":"Kobeigane Base Hospital","nameSi":null,"nameTa":null,"kind":"hospital","operator":null,"beds":null,"healthcare":null},"geometry":{"type":"Point","coordinates":[80.125702,7.6555111]}},{"type":"Feature","id":"node/1977820865","properties":{"id":"node/1977820865","osmId":1977820865,"osmType":"node","name":"Hospital Narammala","nameSi":null,"nameTa":null,"kind":"hospital","operator":null,"beds":null,"healthcare":null},"geometry":{"type":"Point","coordinates":[80.2064789,7.4312722]}},{"type":"Feature","id":"node/1977820889","properties":{"id":"node/1977820889","osmId":1977820889,"osmType":"node","name":"Ayurweda Hospital Narammala","nameSi":null,"nameTa":null,"kind":"hospital","operator":null,"beds":null,"healthcare":null},"geometry":{"type":"Point","coordinates":[80.2125944,7.4325701]}},{"type":"Feature","id":"node/1978801477","properties":{"id":"node/1978801477","osmId":1978801477,"osmType":"node","name":"Nugegoda Nursing Home","nameSi":null,"nameTa":null,"kind":"hospital","operator":null,"beds":null,"healthcare":"hospital"},"geometry":{"type":"Point","coordinates":[79.8913231,6.8685486]}},{"type":"Feature","id":"node/1981147412","properties":{"id":"node/1981147412","osmId":1981147412,"osmType":"node","name":"Kekirawa District Hospital","nameSi":null,"nameTa":null,"kind":"hospital","operator":null,"beds":null,"healthcare":"hospital"},"geometry":{"type":"Point","coordinates":[80.5960427,8.044023]}},{"type":"Feature","id":"node/1981159943","properties":{"id":"node/1981159943","osmId":1981159943,"osmType":"node","name":"Mihintale district Hospital","nameSi":null,"nameTa":null,"kind":"hospital","operator":null,"beds":null,"healthcare":null},"geometry":{"type":"Point","coordinates":[80.5098112,8.3547478]}},{"type":"Feature","id":"node/1988112233","properties":{"id":"node/1988112233","osmId":1988112233,"osmType":"node","name":"Asiri Laboratory","nameSi":null,"nameTa":null,"kind":"hospital","operator":null,"beds":null,"healthcare":"hospital"},"geometry":{"type":"Point","coordinates":[79.9290176,6.8920418]}},{"type":"Feature","id":"node/1993203085","properties":{"id":"node/1993203085","osmId":1993203085,"osmType":"node","name":"Divisional Hospital","nameSi":null,"nameTa":null,"kind":"hospital","operator":null,"beds":null,"healthcare":null},"geometry":{"type":"Point","coordinates":[81.0110016,6.7879708]}},{"type":"Feature","id":"node/1994693274","properties":{"id":"node/1994693274","osmId":1994693274,"osmType":"node","name":"Base Hospital","nameSi":null,"nameTa":null,"kind":"hospital","operator":null,"beds":null,"healthcare":null},"geometry":{"type":"Point","coordinates":[80.3974002,6.5306079]}},{"type":"Feature","id":"node/1994920168","properties":{"id":"node/1994920168","osmId":1994920168,"osmType":"node","name":"Ratnapura Teaching Hospital","nameSi":null,"nameTa":null,"kind":"hospital","operator":null,"beds":null,"healthcare":"hospital"},"geometry":{"type":"Point","coordinates":[80.3924992,6.6871447]}},{"type":"Feature","id":"node/2001999417","properties":{"id":"node/2001999417","osmId":2001999417,"osmType":"node","name":"Mahaoya Base Hospital","nameSi":null,"nameTa":null,"kind":"hospital","operator":null,"beds":null,"healthcare":null},"geometry":{"type":"Point","coordinates":[81.3555798,7.5309537]}},{"type":"Feature","id":"node/2026668068","properties":{"id":"node/2026668068","osmId":2026668068,"osmType":"node","name":"Colombo Friend-in-Need Society","nameSi":null,"nameTa":null,"kind":"hospital","operator":null,"beds":null,"healthcare":"hospital"},"geometry":{"type":"Point","coordinates":[79.8559089,6.9164093]}},{"type":"Feature","id":"node/2035811627","properties":{"id":"node/2035811627","osmId":2035811627,"osmType":"node","name":"Ideal Hospital","nameSi":null,"nameTa":null,"kind":"hospital","operator":null,"beds":null,"healthcare":"hospital"},"geometry":{"type":"Point","coordinates":[80.7681614,6.9723493]}},{"type":"Feature","id":"node/2035855678","properties":{"id":"node/2035855678","osmId":2035855678,"osmType":"node","name":"Kandapola Hospital","nameSi":null,"nameTa":null,"kind":"hospital","operator":null,"beds":null,"healthcare":null},"geometry":{"type":"Point","coordinates":[80.818241,6.9951992]}},{"type":"Feature","id":"node/2087548638","properties":{"id":"node/2087548638","osmId":2087548638,"osmType":"node","name":"Peradeniya Teaching Hospital","nameSi":null,"nameTa":null,"kind":"hospital","operator":null,"beds":null,"healthcare":"hospital"},"geometry":{"type":"Point","coordinates":[80.5981261,7.266409]}},{"type":"Feature","id":"node/2094306206","properties":{"id":"node/2094306206","osmId":2094306206,"osmType":"node","name":"Medicare","nameSi":null,"nameTa":null,"kind":"hospital","operator":null,"beds":null,"healthcare":"hospital"},"geometry":{"type":"Point","coordinates":[79.8723122,6.9215796]}},{"type":"Feature","id":"node/2094344643","properties":{"id":"node/2094344643","osmId":2094344643,"osmType":"node","name":"Borella Private Hospital","nameSi":null,"nameTa":null,"kind":"hospital","operator":null,"beds":null,"healthcare":"hospital"},"geometry":{"type":"Point","coordinates":[79.880517,6.9139244]}},{"type":"Feature","id":"node/2096452649","properties":{"id":"node/2096452649","osmId":2096452649,"osmType":"node","name":"YMBA Hospital","nameSi":null,"nameTa":null,"kind":"hospital","operator":null,"beds":null,"healthcare":"hospital"},"geometry":{"type":"Point","coordinates":[79.894408,6.9333964]}},{"type":"Feature","id":"node/2100972630","properties":{"id":"node/2100972630","osmId":2100972630,"osmType":"node","name":"Homagama Base Hospital","nameSi":null,"nameTa":null,"kind":"hospital","operator":null,"beds":null,"healthcare":"hospital"},"geometry":{"type":"Point","coordinates":[79.9923651,6.8469074]}},{"type":"Feature","id":"node/2112572119","properties":{"id":"node/2112572119","osmId":2112572119,"osmType":"node","name":"Galewela Base Hospital","nameSi":null,"nameTa":null,"kind":"hospital","operator":null,"beds":null,"healthcare":null},"geometry":{"type":"Point","coordinates":[80.5716613,7.7606317]}},{"type":"Feature","id":"node/2124720725","properties":{"id":"node/2124720725","osmId":2124720725,"osmType":"node","name":"Lions Eye Hospital","nameSi":null,"nameTa":null,"kind":"hospital","operator":null,"beds":null,"healthcare":null},"geometry":{"type":"Point","coordinates":[79.9123243,6.927259]}},{"type":"Feature","id":"node/2146223914","properties":{"id":"node/2146223914","osmId":2146223914,"osmType":"node","name":"Erathna Rural Hospital","nameSi":null,"nameTa":null,"kind":"hospital","operator":null,"beds":null,"healthcare":null},"geometry":{"type":"Point","coordinates":[80.4075065,6.835309]}},{"type":"Feature","id":"node/2151514476","properties":{"id":"node/2151514476","osmId":2151514476,"osmType":"node","name":"Coop medical Centre","nameSi":null,"nameTa":null,"kind":"hospital","operator":null,"beds":null,"healthcare":null},"geometry":{"type":"Point","coordinates":[80.4027324,6.6874477]}},{"type":"Feature","id":"node/2152832489","properties":{"id":"node/2152832489","osmId":2152832489,"osmType":"node","name":"District General Hospital Killinochchi","nameSi":null,"nameTa":"மாட்ட பொது வைத்தியசாலை","kind":"hospital","operator":null,"beds":null,"healthcare":null},"geometry":{"type":"Point","coordinates":[80.4114281,9.3727442]}},{"type":"Feature","id":"node/2155827557","properties":{"id":"node/2155827557","osmId":2155827557,"osmType":"node","name":"Rural Hospital","nameSi":null,"nameTa":null,"kind":"hospital","operator":null,"beds":null,"healthcare":null},"geometry":{"type":"Point","coordinates":[80.3743171,6.3796996]}},{"type":"Feature","id":"node/2176700458","properties":{"id":"node/2176700458","osmId":2176700458,"osmType":"node","name":"Deniyaya Hospital","nameSi":null,"nameTa":null,"kind":"hospital","operator":null,"beds":null,"healthcare":null},"geometry":{"type":"Point","coordinates":[80.5682703,6.3575453]}},{"type":"Feature","id":"node/2176940719","properties":{"id":"node/2176940719","osmId":2176940719,"osmType":"node","name":"Pallegama Rural Hospital","nameSi":null,"nameTa":null,"kind":"hospital","operator":null,"beds":null,"healthcare":null},"geometry":{"type":"Point","coordinates":[80.5223857,6.3298078]}},{"type":"Feature","id":"node/2286402631","properties":{"id":"node/2286402631","osmId":2286402631,"osmType":"node","name":"Medirigiriya Base Hospital","nameSi":null,"nameTa":null,"kind":"hospital","operator":null,"beds":null,"healthcare":null},"geometry":{"type":"Point","coordinates":[80.9675466,8.1430794]}},{"type":"Feature","id":"node/2303597213","properties":{"id":"node/2303597213","osmId":2303597213,"osmType":"node","name":"Welikanda","nameSi":null,"nameTa":null,"kind":"hospital","operator":null,"beds":null,"healthcare":null},"geometry":{"type":"Point","coordinates":[81.2464883,7.9485257]}},{"type":"Feature","id":"node/2304485570","properties":{"id":"node/2304485570","osmId":2304485570,"osmType":"node","name":"Manampitiya Hospital","nameSi":null,"nameTa":null,"kind":"hospital","operator":null,"beds":null,"healthcare":null},"geometry":{"type":"Point","coordinates":[81.113417,7.9046279]}},{"type":"Feature","id":"node/2315533313","properties":{"id":"node/2315533313","osmId":2315533313,"osmType":"node","name":"Medamahanuwara Divisional Hospital","nameSi":null,"nameTa":null,"kind":"hospital","operator":null,"beds":null,"healthcare":null},"geometry":{"type":"Point","coordinates":[80.8151703,7.289746]}},{"type":"Feature","id":"node/2323963211","properties":{"id":"node/2323963211","osmId":2323963211,"osmType":"node","name":"Alawwa District Hospital","nameSi":null,"nameTa":null,"kind":"hospital","operator":null,"beds":null,"healthcare":null},"geometry":{"type":"Point","coordinates":[80.2301666,7.2981194]}},{"type":"Feature","id":"node/2334181719","properties":{"id":"node/2334181719","osmId":2334181719,"osmType":"node","name":"Teldeniya District Base Hospital","nameSi":null,"nameTa":null,"kind":"hospital","operator":null,"beds":null,"healthcare":null},"geometry":{"type":"Point","coordinates":[80.7644417,7.3077388]}},{"type":"Feature","id":"node/2335114652","properties":{"id":"node/2335114652","osmId":2335114652,"osmType":"node","name":"Digana","nameSi":null,"nameTa":null,"kind":"hospital","operator":null,"beds":null,"healthcare":null},"geometry":{"type":"Point","coordinates":[80.7348435,7.2942769]}},{"type":"Feature","id":"node/2338860270","properties":{"id":"node/2338860270","osmId":2338860270,"osmType":"node","name":"Aranayake Hospital","nameSi":null,"nameTa":null,"kind":"hospital","operator":null,"beds":null,"healthcare":null},"geometry":{"type":"Point","coordinates":[80.4587191,7.1773575]}},{"type":"Feature","id":"node/2339237715","properties":{"id":"node/2339237715","osmId":2339237715,"osmType":"node","name":"Panadura Nursing Home","nameSi":null,"nameTa":null,"kind":"hospital","operator":null,"beds":null,"healthcare":"hospital"},"geometry":{"type":"Point","coordinates":[79.9059095,6.7056772]}},{"type":"Feature","id":"node/2339437466","properties":{"id":"node/2339437466","osmId":2339437466,"osmType":"node","name":"Suwa Medura","nameSi":null,"nameTa":null,"kind":"hospital","operator":null,"beds":null,"healthcare":"hospital"},"geometry":{"type":"Point","coordinates":[79.9082865,6.7180466]}},{"type":"Feature","id":"node/2340164320","properties":{"id":"node/2340164320","osmId":2340164320,"osmType":"node","name":"OSRO Hospital","nameSi":null,"nameTa":null,"kind":"hospital","operator":null,"beds":null,"healthcare":null},"geometry":{"type":"Point","coordinates":[80.4497877,7.2510461]}},{"type":"Feature","id":"node/2340165236","properties":{"id":"node/2340165236","osmId":2340165236,"osmType":"node","name":"Base Hospital Mawanella","nameSi":null,"nameTa":null,"kind":"hospital","operator":null,"beds":null,"healthcare":"hospital"},"geometry":{"type":"Point","coordinates":[80.4458988,7.2536811]}},{"type":"Feature","id":"node/2342937786","properties":{"id":"node/2342937786","osmId":2342937786,"osmType":"node","name":"Pallekele Ayurveda Hospital","nameSi":null,"nameTa":null,"kind":"hospital","operator":null,"beds":null,"healthcare":"alternative"},"geometry":{"type":"Point","coordinates":[80.7070344,7.2714146]}},{"type":"Feature","id":"node/2343111695","properties":{"id":"node/2343111695","osmId":2343111695,"osmType":"node","name":"Yakghapitiya Divisional Hospital","nameSi":null,"nameTa":null,"kind":"hospital","operator":null,"beds":null,"healthcare":"hospital"},"geometry":{"type":"Point","coordinates":[80.6676499,7.298646]}},{"type":"Feature","id":"node/2370163010","properties":{"id":"node/2370163010","osmId":2370163010,"osmType":"node","name":"Imaduwa Hospital","nameSi":null,"nameTa":null,"kind":"hospital","operator":null,"beds":null,"healthcare":null},"geometry":{"type":"Point","coordinates":[80.391441,6.0378367]}},{"type":"Feature","id":"node/2380090256","properties":{"id":"node/2380090256","osmId":2380090256,"osmType":"node","name":"Clinic","nameSi":null,"nameTa":null,"kind":"clinic","operator":null,"beds":null,"healthcare":null},"geometry":{"type":"Point","coordinates":[80.4571577,5.9482037]}},{"type":"Feature","id":"node/2388337545","properties":{"id":"node/2388337545","osmId":2388337545,"osmType":"node","name":"Thalathuoya Hospital","nameSi":null,"nameTa":null,"kind":"hospital","operator":null,"beds":null,"healthcare":null},"geometry":{"type":"Point","coordinates":[80.6893614,7.2511826]}},{"type":"Feature","id":"node/2410576900","properties":{"id":"node/2410576900","osmId":2410576900,"osmType":"node","name":"Abisha Hospital","nameSi":null,"nameTa":null,"kind":"hospital","operator":null,"beds":null,"healthcare":null},"geometry":{"type":"Point","coordinates":[80.4940509,8.7483331]}},{"type":"Feature","id":"node/2426388316","properties":{"id":"node/2426388316","osmId":2426388316,"osmType":"node","name":"Ingiriya District Hospital","nameSi":null,"nameTa":null,"kind":"hospital","operator":null,"beds":null,"healthcare":"hospital"},"geometry":{"type":"Point","coordinates":[80.162144,6.741412]}},{"type":"Feature","id":"node/2479890347","properties":{"id":"node/2479890347","osmId":2479890347,"osmType":"node","name":"Leesons Hospital","nameSi":null,"nameTa":null,"kind":"hospital","operator":null,"beds":null,"healthcare":null},"geometry":{"type":"Point","coordinates":[79.9220455,7.0316559]}},{"type":"Feature","id":"node/2524559604","properties":{"id":"node/2524559604","osmId":2524559604,"osmType":"node","name":"District Hospitel Uva-Paranagama","nameSi":null,"nameTa":null,"kind":"hospital","operator":null,"beds":null,"healthcare":null},"geometry":{"type":"Point","coordinates":[80.8904325,6.9381972]}},{"type":"Feature","id":"node/2552015799","properties":{"id":"node/2552015799","osmId":2552015799,"osmType":"node","name":"Odent Dental Surgery","nameSi":null,"nameTa":null,"kind":"hospital","operator":null,"beds":null,"healthcare":"hospital"},"geometry":{"type":"Point","coordinates":[79.9308043,6.8449276]}},{"type":"Feature","id":"node/2558644076","properties":{"id":"node/2558644076","osmId":2558644076,"osmType":"node","name":"Thalwaththa Hospital","nameSi":null,"nameTa":null,"kind":"hospital","operator":null,"beds":null,"healthcare":null},"geometry":{"type":"Point","coordinates":[80.1857597,7.2918223]}},{"type":"Feature","id":"node/2559270088","properties":{"id":"node/2559270088","osmId":2559270088,"osmType":"node","name":"Public Dispensary","nameSi":null,"nameTa":null,"kind":"hospital","operator":null,"beds":null,"healthcare":null},"geometry":{"type":"Point","coordinates":[80.1779798,7.3372132]}},{"type":"Feature","id":"node/2588694138","properties":{"id":"node/2588694138","osmId":2588694138,"osmType":"node","name":"Lunawa Aryuweda Hospital","nameSi":null,"nameTa":null,"kind":"hospital","operator":null,"beds":null,"healthcare":"hospital"},"geometry":{"type":"Point","coordinates":[79.8780478,6.783547]}},{"type":"Feature","id":"node/2610271942","properties":{"id":"node/2610271942","osmId":2610271942,"osmType":"node","name":"Primary Health Care Centre","nameSi":null,"nameTa":null,"kind":"hospital","operator":null,"beds":null,"healthcare":"hospital"},"geometry":{"type":"Point","coordinates":[80.249527,6.3023047]}},{"type":"Feature","id":"node/2610318045","properties":{"id":"node/2610318045","osmId":2610318045,"osmType":"node","name":"Rural Hospital","nameSi":null,"nameTa":null,"kind":"hospital","operator":null,"beds":null,"healthcare":null},"geometry":{"type":"Point","coordinates":[80.4016012,6.2882861]}},{"type":"Feature","id":"node/2610405672","properties":{"id":"node/2610405672","osmId":2610405672,"osmType":"node","name":"Rural Hospital","nameSi":null,"nameTa":null,"kind":"hospital","operator":null,"beds":null,"healthcare":null},"geometry":{"type":"Point","coordinates":[80.8800558,6.2343884]}},{"type":"Feature","id":"node/2708944796","properties":{"id":"node/2708944796","osmId":2708944796,"osmType":"node","name":"Sachitra Hospital","nameSi":null,"nameTa":null,"kind":"hospital","operator":null,"beds":null,"healthcare":"hospital"},"geometry":{"type":"Point","coordinates":[79.9106933,6.7111418]}},{"type":"Feature","id":"node/2739103173","properties":{"id":"node/2739103173","osmId":2739103173,"osmType":"node","name":null,"nameSi":null,"nameTa":null,"kind":"hospital","operator":null,"beds":null,"healthcare":null},"geometry":{"type":"Point","coordinates":[80.702062,9.3217334]}},{"type":"Feature","id":"node/2807896680","properties":{"id":"node/2807896680","osmId":2807896680,"osmType":"node","name":"Medihelp Medical Centre","nameSi":null,"nameTa":null,"kind":"clinic","operator":null,"beds":null,"healthcare":null},"geometry":{"type":"Point","coordinates":[80.1128857,6.5172471]}},{"type":"Feature","id":"node/2828331566","properties":{"id":"node/2828331566","osmId":2828331566,"osmType":"node","name":"Peradeniya Dental Hospital","nameSi":null,"nameTa":null,"kind":"hospital","operator":null,"beds":null,"healthcare":null},"geometry":{"type":"Point","coordinates":[80.599262,7.266579]}},{"type":"Feature","id":"node/2828417371","properties":{"id":"node/2828417371","osmId":2828417371,"osmType":"node","name":"Amaya Medical Consultations","nameSi":null,"nameTa":null,"kind":"clinic","operator":null,"beds":null,"healthcare":"clinic"},"geometry":{"type":"Point","coordinates":[80.6128279,7.2742016]}},{"type":"Feature","id":"node/2831618989","properties":{"id":"node/2831618989","osmId":2831618989,"osmType":"node","name":"Welikanda","nameSi":null,"nameTa":null,"kind":"hospital","operator":null,"beds":null,"healthcare":null},"geometry":{"type":"Point","coordinates":[81.2458432,7.9476358]}},{"type":"Feature","id":"node/2831625523","properties":{"id":"node/2831625523","osmId":2831625523,"osmType":"node","name":"Ayurveda Central Hospital","nameSi":null,"nameTa":null,"kind":"hospital","operator":null,"beds":null,"healthcare":null},"geometry":{"type":"Point","coordinates":[81.0416685,7.5661087]}},{"type":"Feature","id":"node/2833339911","properties":{"id":"node/2833339911","osmId":2833339911,"osmType":"node","name":"MOH Thamankaduwa","nameSi":null,"nameTa":null,"kind":"clinic","operator":null,"beds":null,"healthcare":null},"geometry":{"type":"Point","coordinates":[81.0074817,7.9437819]}},{"type":"Feature","id":"node/2901379801","properties":{"id":"node/2901379801","osmId":2901379801,"osmType":"node","name":"Aloka Hospital","nameSi":null,"nameTa":null,"kind":"hospital","operator":null,"beds":null,"healthcare":null},"geometry":{"type":"Point","coordinates":[80.4034419,6.6821753]}},{"type":"Feature","id":"node/2901418998","properties":{"id":"node/2901418998","osmId":2901418998,"osmType":"node","name":"Singhe Hospital","nameSi":null,"nameTa":null,"kind":"hospital","operator":null,"beds":null,"healthcare":"hospital"},"geometry":{"type":"Point","coordinates":[80.3944372,6.6909091]}},{"type":"Feature","id":"node/2902312873","properties":{"id":"node/2902312873","osmId":2902312873,"osmType":"node","name":"Akkurugoda MOH","nameSi":null,"nameTa":null,"kind":"hospital","operator":null,"beds":null,"healthcare":null},"geometry":{"type":"Point","coordinates":[80.5007265,6.0084654]}},{"type":"Feature","id":"node/2905118777","properties":{"id":"node/2905118777","osmId":2905118777,"osmType":"node","name":"ayurweda hospital","nameSi":null,"nameTa":null,"kind":"hospital","operator":null,"beds":null,"healthcare":null},"geometry":{"type":"Point","coordinates":[80.920467,6.9020699]}},{"type":"Feature","id":"node/2910213594","properties":{"id":"node/2910213594","osmId":2910213594,"osmType":"node","name":null,"nameSi":null,"nameTa":null,"kind":"hospital","operator":null,"beds":null,"healthcare":"hospital"},"geometry":{"type":"Point","coordinates":[80.0413396,6.2934953]}},{"type":"Feature","id":"node/2910216436","properties":{"id":"node/2910216436","osmId":2910216436,"osmType":"node","name":"Aurvedic Center","nameSi":null,"nameTa":null,"kind":"hospital","operator":null,"beds":null,"healthcare":"hospital"},"geometry":{"type":"Point","coordinates":[80.4113074,8.3265775]}},{"type":"Feature","id":"node/2910342845","properties":{"id":"node/2910342845","osmId":2910342845,"osmType":"node","name":"Dental Surgeon Private","nameSi":null,"nameTa":null,"kind":"hospital","operator":null,"beds":null,"healthcare":null},"geometry":{"type":"Point","coordinates":[79.9616363,7.0685704]}},{"type":"Feature","id":"node/2913891490","properties":{"id":"node/2913891490","osmId":2913891490,"osmType":"node","name":null,"nameSi":null,"nameTa":null,"kind":"hospital","operator":null,"beds":null,"healthcare":null},"geometry":{"type":"Point","coordinates":[80.5928891,7.2135973]}},{"type":"Feature","id":"node/2915434805","properties":{"id":"node/2915434805","osmId":2915434805,"osmType":"node","name":"Welimada Base Hospital","nameSi":null,"nameTa":null,"kind":"hospital","operator":null,"beds":null,"healthcare":null},"geometry":{"type":"Point","coordinates":[80.9087119,6.9090322]}},{"type":"Feature","id":"node/2921319349","properties":{"id":"node/2921319349","osmId":2921319349,"osmType":"node","name":"Baddegama Hospital","nameSi":null,"nameTa":null,"kind":"hospital","operator":null,"beds":null,"healthcare":null},"geometry":{"type":"Point","coordinates":[80.1804779,6.1614238]}},{"type":"Feature","id":"node/2964699767","properties":{"id":"node/2964699767","osmId":2964699767,"osmType":"node","name":"Kandanegedara Hospital","nameSi":null,"nameTa":null,"kind":"hospital","operator":null,"beds":null,"healthcare":null},"geometry":{"type":"Point","coordinates":[79.9787224,7.3992228]}},{"type":"Feature","id":"node/2980887901","properties":{"id":"node/2980887901","osmId":2980887901,"osmType":"node","name":"Indika Pharmacy","nameSi":null,"nameTa":null,"kind":"hospital","operator":null,"beds":null,"healthcare":null},"geometry":{"type":"Point","coordinates":[80.8433486,6.3256369]}},{"type":"Feature","id":"node/3031566819","properties":{"id":"node/3031566819","osmId":3031566819,"osmType":"node","name":"Radawana Divisional Hospital","nameSi":null,"nameTa":null,"kind":"hospital","operator":null,"beds":null,"healthcare":null},"geometry":{"type":"Point","coordinates":[80.100181,7.0324364]}},{"type":"Feature","id":"node/3090091975","properties":{"id":"node/3090091975","osmId":3090091975,"osmType":"node","name":"Base Hospital","nameSi":null,"nameTa":null,"kind":"hospital","operator":null,"beds":null,"healthcare":null},"geometry":{"type":"Point","coordinates":[80.2643708,6.8482459]}},{"type":"Feature","id":"node/3098340244","properties":{"id":"node/3098340244","osmId":3098340244,"osmType":"node","name":"bsr","nameSi":null,"nameTa":null,"kind":"hospital","operator":null,"beds":null,"healthcare":null},"geometry":{"type":"Point","coordinates":[80.5250197,5.9541051]}},{"type":"Feature","id":"node/3145014128","properties":{"id":"node/3145014128","osmId":3145014128,"osmType":"node","name":"Udawalawe Rural Hospital","nameSi":null,"nameTa":null,"kind":"hospital","operator":null,"beds":null,"healthcare":null},"geometry":{"type":"Point","coordinates":[80.8162356,6.4252834]}},{"type":"Feature","id":"node/3147175363","properties":{"id":"node/3147175363","osmId":3147175363,"osmType":"node","name":"Green Medicare Hospital","nameSi":null,"nameTa":null,"kind":"hospital","operator":null,"beds":null,"healthcare":"hospital"},"geometry":{"type":"Point","coordinates":[80.8575621,6.3310635]}},{"type":"Feature","id":"node/3154127034","properties":{"id":"node/3154127034","osmId":3154127034,"osmType":"node","name":"Panawala Ayurveda Hospital","nameSi":null,"nameTa":null,"kind":"hospital","operator":null,"beds":null,"healthcare":null},"geometry":{"type":"Point","coordinates":[80.2723446,6.8881022]}},{"type":"Feature","id":"node/3213933933","properties":{"id":"node/3213933933","osmId":3213933933,"osmType":"node","name":"Ankumbura Divitional Hospital","nameSi":null,"nameTa":null,"kind":"hospital","operator":null,"beds":null,"healthcare":null},"geometry":{"type":"Point","coordinates":[80.5701698,7.4404367]}},{"type":"Feature","id":"node/3215354223","properties":{"id":"node/3215354223","osmId":3215354223,"osmType":"node","name":"District General Hospital","nameSi":null,"nameTa":null,"kind":"hospital","operator":null,"beds":null,"healthcare":null},"geometry":{"type":"Point","coordinates":[80.5352495,7.0528085]}},{"type":"Feature","id":"node/3220016706","properties":{"id":"node/3220016706","osmId":3220016706,"osmType":"node","name":"Teaching Hospital Kegalle","nameSi":null,"nameTa":null,"kind":"hospital","operator":null,"beds":null,"healthcare":null},"geometry":{"type":"Point","coordinates":[80.345705,7.2474986]}},{"type":"Feature","id":"node/3220247513","properties":{"id":"node/3220247513","osmId":3220247513,"osmType":"node","name":"Divisonal Hospital - Karainagar","nameSi":null,"nameTa":null,"kind":"hospital","operator":null,"beds":null,"healthcare":"hospital"},"geometry":{"type":"Point","coordinates":[79.8867057,9.7407444]}},{"type":"Feature","id":"node/3220256071","properties":{"id":"node/3220256071","osmId":3220256071,"osmType":"node","name":"Divisional Hospital Kayts","nameSi":null,"nameTa":"பிரதேச வைத்தியசாலை ஊர்காவற்துறை","kind":"hospital","operator":null,"beds":null,"healthcare":"hospital"},"geometry":{"type":"Point","coordinates":[79.8658366,9.6981156]}},{"type":"Feature","id":"node/3220261439","properties":{"id":"node/3220261439","osmId":3220261439,"osmType":"node","name":"Divisional Hospital Velanai","nameSi":null,"nameTa":null,"kind":"hospital","operator":"Government of Sri Lanka","beds":null,"healthcare":null},"geometry":{"type":"Point","coordinates":[79.9038191,9.6370939]}},{"type":"Feature","id":"node/3331326390","properties":{"id":"node/3331326390","osmId":3331326390,"osmType":"node","name":"Chenaikudiruppu Base Hospital","nameSi":null,"nameTa":null,"kind":"hospital","operator":null,"beds":null,"healthcare":null},"geometry":{"type":"Point","coordinates":[81.8074135,7.4174236]}},{"type":"Feature","id":"node/3331351770","properties":{"id":"node/3331351770","osmId":3331351770,"osmType":"node","name":"Divisional Hospital","nameSi":null,"nameTa":null,"kind":"hospital","operator":null,"beds":null,"healthcare":null},"geometry":{"type":"Point","coordinates":[81.8111066,7.4327928]}},{"type":"Feature","id":"node/3333281914","properties":{"id":"node/3333281914","osmId":3333281914,"osmType":"node","name":"Base Hospital","nameSi":null,"nameTa":null,"kind":"hospital","operator":null,"beds":null,"healthcare":null},"geometry":{"type":"Point","coordinates":[81.8116993,7.4667411]}},{"type":"Feature","id":"node/3377388729","properties":{"id":"node/3377388729","osmId":3377388729,"osmType":"node","name":"Base Hospital","nameSi":null,"nameTa":null,"kind":"hospital","operator":null,"beds":null,"healthcare":null},"geometry":{"type":"Point","coordinates":[80.796872,6.0227057]}},{"type":"Feature","id":"node/3424999527","properties":{"id":"node/3424999527","osmId":3424999527,"osmType":"node","name":"District General Hospital","nameSi":null,"nameTa":null,"kind":"hospital","operator":null,"beds":null,"healthcare":"hospital"},"geometry":{"type":"Point","coordinates":[79.902882,8.9813545]}},{"type":"Feature","id":"node/3455205573","properties":{"id":"node/3455205573","osmId":3455205573,"osmType":"node","name":"Mohotti Private Hostpital","nameSi":null,"nameTa":null,"kind":"hospital","operator":null,"beds":null,"healthcare":null},"geometry":{"type":"Point","coordinates":[80.5466443,5.948234]}},{"type":"Feature","id":"node/3455219378","properties":{"id":"node/3455219378","osmId":3455219378,"osmType":"node","name":"Asiri Hospital (PVT)","nameSi":null,"nameTa":null,"kind":"hospital","operator":null,"beds":null,"healthcare":null},"geometry":{"type":"Point","coordinates":[80.5386778,5.9487319]}},{"type":"Feature","id":"node/3474615460","properties":{"id":"node/3474615460","osmId":3474615460,"osmType":"node","name":"Biyagama Private Hospital","nameSi":null,"nameTa":null,"kind":"clinic","operator":null,"beds":null,"healthcare":null},"geometry":{"type":"Point","coordinates":[80.0106953,6.9599423]}},{"type":"Feature","id":"node/3519925423","properties":{"id":"node/3519925423","osmId":3519925423,"osmType":"node","name":"Divisional Hodpital Pungudutivu","nameSi":null,"nameTa":null,"kind":"hospital","operator":"Government of Sri Lanka","beds":null,"healthcare":"hospital"},"geometry":{"type":"Point","coordinates":[79.8301305,9.5725062]}},{"type":"Feature","id":"node/3521708167","properties":{"id":"node/3521708167","osmId":3521708167,"osmType":"node","name":"Pimbura Distric Hospital","nameSi":null,"nameTa":null,"kind":"hospital","operator":null,"beds":null,"healthcare":null},"geometry":{"type":"Point","coordinates":[80.1581676,6.5757017]}},{"type":"Feature","id":"node/3537669661","properties":{"id":"node/3537669661","osmId":3537669661,"osmType":"node","name":"Bemmulla Clinic","nameSi":null,"nameTa":null,"kind":"hospital","operator":null,"beds":null,"healthcare":null},"geometry":{"type":"Point","coordinates":[80.0260558,7.1212801]}},{"type":"Feature","id":"node/3590070473","properties":{"id":"node/3590070473","osmId":3590070473,"osmType":"node","name":"Medagoda","nameSi":null,"nameTa":null,"kind":"hospital","operator":null,"beds":null,"healthcare":null},"geometry":{"type":"Point","coordinates":[80.4959268,5.9509878]}},{"type":"Feature","id":"node/3590072273","properties":{"id":"node/3590072273","osmId":3590072273,"osmType":"node","name":"Karapitiya Medical center","nameSi":null,"nameTa":null,"kind":"clinic","operator":null,"beds":null,"healthcare":null},"geometry":{"type":"Point","coordinates":[80.4950185,5.9484626]}},{"type":"Feature","id":"node/3633843118","properties":{"id":"node/3633843118","osmId":3633843118,"osmType":"node","name":"Mawarala Hospital","nameSi":null,"nameTa":null,"kind":"hospital","operator":null,"beds":null,"healthcare":null},"geometry":{"type":"Point","coordinates":[80.5919817,6.2018314]}},{"type":"Feature","id":"node/3634924475","properties":{"id":"node/3634924475","osmId":3634924475,"osmType":"node","name":"Central Dispensary","nameSi":null,"nameTa":null,"kind":"hospital","operator":null,"beds":null,"healthcare":null},"geometry":{"type":"Point","coordinates":[81.0283613,7.6308071]}},{"type":"Feature","id":"node/3665944325","properties":{"id":"node/3665944325","osmId":3665944325,"osmType":"node","name":"Chettikulam Hospital","nameSi":null,"nameTa":null,"kind":"hospital","operator":null,"beds":null,"healthcare":null},"geometry":{"type":"Point","coordinates":[80.312435,8.6591013]}},{"type":"Feature","id":"node/3691169013","properties":{"id":"node/3691169013","osmId":3691169013,"osmType":"node","name":"Divisional Hospital","nameSi":null,"nameTa":null,"kind":"hospital","operator":null,"beds":null,"healthcare":null},"geometry":{"type":"Point","coordinates":[79.8276202,7.7887782]}},{"type":"Feature","id":"node/3699456580","properties":{"id":"node/3699456580","osmId":3699456580,"osmType":"node","name":"Angunukolapeless","nameSi":null,"nameTa":null,"kind":"hospital","operator":null,"beds":null,"healthcare":null},"geometry":{"type":"Point","coordinates":[80.8997815,6.1652567]}},{"type":"Feature","id":"node/3710409771","properties":{"id":"node/3710409771","osmId":3710409771,"osmType":"node","name":null,"nameSi":null,"nameTa":null,"kind":"hospital","operator":null,"beds":null,"healthcare":null},"geometry":{"type":"Point","coordinates":[79.8519954,7.0929247]}},{"type":"Feature","id":"node/3727831288","properties":{"id":"node/3727831288","osmId":3727831288,"osmType":"node","name":"Thasim Chest Clinic","nameSi":null,"nameTa":null,"kind":"hospital","operator":null,"beds":null,"healthcare":"hospital"},"geometry":{"type":"Point","coordinates":[80.2165098,6.036438]}},{"type":"Feature","id":"node/3729212810","properties":{"id":"node/3729212810","osmId":3729212810,"osmType":"node","name":null,"nameSi":null,"nameTa":null,"kind":"clinic","operator":null,"beds":null,"healthcare":"clinic"},"geometry":{"type":"Point","coordinates":[80.2052673,6.0603515]}},{"type":"Feature","id":"node/3729663235","properties":{"id":"node/3729663235","osmId":3729663235,"osmType":"node","name":"Kandy Private Hospital","nameSi":null,"nameTa":null,"kind":"hospital","operator":null,"beds":null,"healthcare":null},"geometry":{"type":"Point","coordinates":[80.6321242,7.3124054]}},{"type":"Feature","id":"node/3753926197","properties":{"id":"node/3753926197","osmId":3753926197,"osmType":"node","name":"Dolosbage Divisional Hospital","nameSi":null,"nameTa":null,"kind":"hospital","operator":null,"beds":null,"healthcare":null},"geometry":{"type":"Point","coordinates":[80.4712432,7.0819686]}},{"type":"Feature","id":"node/3765219866","properties":{"id":"node/3765219866","osmId":3765219866,"osmType":"node","name":"Poovarasankulam Divisional Hospital","nameSi":null,"nameTa":null,"kind":"hospital","operator":null,"beds":null,"healthcare":null},"geometry":{"type":"Point","coordinates":[80.3671949,8.7524912]}},{"type":"Feature","id":"node/3769921344","properties":{"id":"node/3769921344","osmId":3769921344,"osmType":"node","name":"Hospital","nameSi":null,"nameTa":null,"kind":"hospital","operator":null,"beds":null,"healthcare":null},"geometry":{"type":"Point","coordinates":[80.765182,6.1450937]}},{"type":"Feature","id":"node/3770559783","properties":{"id":"node/3770559783","osmId":3770559783,"osmType":"node","name":null,"nameSi":null,"nameTa":null,"kind":"hospital","operator":null,"beds":null,"healthcare":null},"geometry":{"type":"Point","coordinates":[80.7437221,6.0884432]}},{"type":"Feature","id":"node/3778409802","properties":{"id":"node/3778409802","osmId":3778409802,"osmType":"node","name":"Aurvedic Dispensary","nameSi":null,"nameTa":null,"kind":"hospital","operator":null,"beds":null,"healthcare":null},"geometry":{"type":"Point","coordinates":[81.0529372,7.0661314]}},{"type":"Feature","id":"node/3790128293","properties":{"id":"node/3790128293","osmId":3790128293,"osmType":"node","name":"Medi House","nameSi":null,"nameTa":null,"kind":"clinic","operator":null,"beds":null,"healthcare":null},"geometry":{"type":"Point","coordinates":[80.5502054,5.9497342]}},{"type":"Feature","id":"node/3798153917","properties":{"id":"node/3798153917","osmId":3798153917,"osmType":"node","name":"Kahawatte Rural Hospital","nameSi":null,"nameTa":null,"kind":"hospital","operator":null,"beds":null,"healthcare":null},"geometry":{"type":"Point","coordinates":[80.6047234,7.1612264]}},{"type":"Feature","id":"node/3801578860","properties":{"id":"node/3801578860","osmId":3801578860,"osmType":"node","name":"Divisional Hospital - Sithaparapuram","nameSi":null,"nameTa":null,"kind":"hospital","operator":null,"beds":null,"healthcare":null},"geometry":{"type":"Point","coordinates":[80.5266415,8.6794289]}},{"type":"Feature","id":"node/3811243316","properties":{"id":"node/3811243316","osmId":3811243316,"osmType":"node","name":"Madiwela Clinic","nameSi":null,"nameTa":null,"kind":"clinic","operator":null,"beds":null,"healthcare":"clinic"},"geometry":{"type":"Point","coordinates":[79.916226,6.8815043]}},{"type":"Feature","id":"node/3822963761","properties":{"id":"node/3822963761","osmId":3822963761,"osmType":"node","name":"New City Channeling Centre","nameSi":null,"nameTa":null,"kind":"hospital","operator":null,"beds":null,"healthcare":null},"geometry":{"type":"Point","coordinates":[81.0469431,7.6694499]}},{"type":"Feature","id":"node/3842184472","properties":{"id":"node/3842184472","osmId":3842184472,"osmType":"node","name":"General","nameSi":null,"nameTa":null,"kind":"hospital","operator":null,"beds":null,"healthcare":"hospital"},"geometry":{"type":"Point","coordinates":[79.9141857,6.9730561]}},{"type":"Feature","id":"node/3842184774","properties":{"id":"node/3842184774","osmId":3842184774,"osmType":"node","name":"gampaha","nameSi":null,"nameTa":null,"kind":"hospital","operator":null,"beds":null,"healthcare":null},"geometry":{"type":"Point","coordinates":[80.3289831,7.0532237]}},{"type":"Feature","id":"node/3865839230","properties":{"id":"node/3865839230","osmId":3865839230,"osmType":"node","name":"Sugantha Nursing Home","nameSi":null,"nameTa":null,"kind":"hospital","operator":null,"beds":null,"healthcare":"hospital"},"geometry":{"type":"Point","coordinates":[80.0215101,9.6712073]}},{"type":"Feature","id":"node/3867347215","properties":{"id":"node/3867347215","osmId":3867347215,"osmType":"node","name":"Senapura (Kagama) Rural Hospital","nameSi":null,"nameTa":null,"kind":"hospital","operator":null,"beds":null,"healthcare":null},"geometry":{"type":"Point","coordinates":[80.4706225,8.0919436]}},{"type":"Feature","id":"node/3870999785","properties":{"id":"node/3870999785","osmId":3870999785,"osmType":"node","name":"Sivasakthi Clinic","nameSi":null,"nameTa":null,"kind":"clinic","operator":null,"beds":null,"healthcare":"clinic"},"geometry":{"type":"Point","coordinates":[80.0406992,9.6617403]}},{"type":"Feature","id":"node/3871059335","properties":{"id":"node/3871059335","osmId":3871059335,"osmType":"node","name":"Appollo Clinic","nameSi":null,"nameTa":null,"kind":"clinic","operator":null,"beds":null,"healthcare":"clinic"},"geometry":{"type":"Point","coordinates":[80.0192642,9.6697989]}},{"type":"Feature","id":"node/3874862041","properties":{"id":"node/3874862041","osmId":3874862041,"osmType":"node","name":"Rural Ayurvedic Hospital","nameSi":null,"nameTa":null,"kind":"hospital","operator":null,"beds":null,"healthcare":null},"geometry":{"type":"Point","coordinates":[80.8807052,6.8312378]}},{"type":"Feature","id":"node/3874869251","properties":{"id":"node/3874869251","osmId":3874869251,"osmType":"node","name":"Sampanthan Clinic","nameSi":null,"nameTa":null,"kind":"clinic","operator":null,"beds":null,"healthcare":"clinic"},"geometry":{"type":"Point","coordinates":[80.0122048,9.6657768]}},{"type":"Feature","id":"node/3874887157","properties":{"id":"node/3874887157","osmId":3874887157,"osmType":"node","name":"SunRise Clinic","nameSi":null,"nameTa":null,"kind":"clinic","operator":null,"beds":null,"healthcare":"clinic"},"geometry":{"type":"Point","coordinates":[80.0112904,9.6664727]}},{"type":"Feature","id":"node/3880396357","properties":{"id":"node/3880396357","osmId":3880396357,"osmType":"node","name":"Co-operative Hospital","nameSi":null,"nameTa":null,"kind":"hospital","operator":null,"beds":null,"healthcare":"hospital"},"geometry":{"type":"Point","coordinates":[80.7656051,6.9779048]}},{"type":"Feature","id":"node/3880398627","properties":{"id":"node/3880398627","osmId":3880398627,"osmType":"node","name":"Medisi Channel Centre","nameSi":null,"nameTa":null,"kind":"hospital","operator":null,"beds":null,"healthcare":"hospital"},"geometry":{"type":"Point","coordinates":[80.7673681,6.974379]}},{"type":"Feature","id":"node/3880403557","properties":{"id":"node/3880403557","osmId":3880403557,"osmType":"node","name":"Suwara","nameSi":null,"nameTa":null,"kind":"clinic","operator":null,"beds":null,"healthcare":"clinic"},"geometry":{"type":"Point","coordinates":[80.7807179,6.9730746]}},{"type":"Feature","id":"node/3889586527","properties":{"id":"node/3889586527","osmId":3889586527,"osmType":"node","name":"Rukkasagara Ayuruwedic hospital","nameSi":null,"nameTa":null,"kind":"hospital","operator":"Department of health","beds":null,"healthcare":null},"geometry":{"type":"Point","coordinates":[80.1354938,7.4332264]}},{"type":"Feature","id":"node/3918017664","properties":{"id":"node/3918017664","osmId":3918017664,"osmType":"node","name":"ayurvedic hospital","nameSi":null,"nameTa":null,"kind":"hospital","operator":null,"beds":null,"healthcare":null},"geometry":{"type":"Point","coordinates":[80.009878,7.0219408]}},{"type":"Feature","id":"node/3925585410","properties":{"id":"node/3925585410","osmId":3925585410,"osmType":"node","name":"Ambalangoda Districut Hospital","nameSi":null,"nameTa":null,"kind":"hospital","operator":null,"beds":null,"healthcare":"hospital"},"geometry":{"type":"Point","coordinates":[80.0625085,6.2491338]}},{"type":"Feature","id":"node/3926600649","properties":{"id":"node/3926600649","osmId":3926600649,"osmType":"node","name":"Mankulam Base Hospital","nameSi":null,"nameTa":null,"kind":"hospital","operator":"Ministry of Health","beds":null,"healthcare":null},"geometry":{"type":"Point","coordinates":[80.4470247,9.1280175]}},{"type":"Feature","id":"node/3926651395","properties":{"id":"node/3926651395","osmId":3926651395,"osmType":"node","name":"Hemas Hospital Laboratory","nameSi":null,"nameTa":null,"kind":"hospital","operator":null,"beds":null,"healthcare":"hospital"},"geometry":{"type":"Point","coordinates":[80.0540939,6.2384053]}},{"type":"Feature","id":"node/3926842867","properties":{"id":"node/3926842867","osmId":3926842867,"osmType":"node","name":"Puliyankulam Divisional Hospital","nameSi":null,"nameTa":null,"kind":"hospital","operator":null,"beds":null,"healthcare":null},"geometry":{"type":"Point","coordinates":[80.5258698,8.9646044]}},{"type":"Feature","id":"node/3926880521","properties":{"id":"node/3926880521","osmId":3926880521,"osmType":"node","name":"Divisional Hospital - Nedunkerny","nameSi":null,"nameTa":"பிரதேச வைத்தியசாலை - நெடுங்கேணி","kind":"hospital","operator":null,"beds":null,"healthcare":null},"geometry":{"type":"Point","coordinates":[80.6528729,9.0537012]}},{"type":"Feature","id":"node/3931996584","properties":{"id":"node/3931996584","osmId":3931996584,"osmType":"node","name":"Auyuvedic Hospital Vavuniya ","nameSi":null,"nameTa":null,"kind":"hospital","operator":null,"beds":null,"healthcare":null},"geometry":{"type":"Point","coordinates":[80.4388746,8.7605684]}},{"type":"Feature","id":"node/3958960457","properties":{"id":"node/3958960457","osmId":3958960457,"osmType":"node","name":"Divisional Hospital Pallai","nameSi":null,"nameTa":null,"kind":"hospital","operator":null,"beds":null,"healthcare":null},"geometry":{"type":"Point","coordinates":[80.3254895,9.6146574]}},{"type":"Feature","id":"node/3967289227","properties":{"id":"node/3967289227","osmId":3967289227,"osmType":"node","name":"Pavatkulam Divisional Hospital","nameSi":null,"nameTa":"பாவற்குளம் பிரதேச வைத்தியசாலை","kind":"hospital","operator":null,"beds":null,"healthcare":null},"geometry":{"type":"Point","coordinates":[80.4209895,8.7059888]}},{"type":"Feature","id":"node/3983331257","properties":{"id":"node/3983331257","osmId":3983331257,"osmType":"node","name":"Neriyakulam Divisional Hospital","nameSi":null,"nameTa":"நேரியகுளம் பிரதேச வைத்திய சாலை","kind":"hospital","operator":null,"beds":null,"healthcare":null},"geometry":{"type":"Point","coordinates":[80.3701343,8.6016568]}},{"type":"Feature","id":"node/3987544067","properties":{"id":"node/3987544067","osmId":3987544067,"osmType":"node","name":"Yarl Mother Care","nameSi":null,"nameTa":"யாழ் மதர் கெயார்","kind":"clinic","operator":null,"beds":null,"healthcare":"clinic"},"geometry":{"type":"Point","coordinates":[80.0133582,9.6652097]}},{"type":"Feature","id":"node/3992483613","properties":{"id":"node/3992483613","osmId":3992483613,"osmType":"node","name":"Private Medical Center","nameSi":null,"nameTa":null,"kind":"clinic","operator":null,"beds":null,"healthcare":null},"geometry":{"type":"Point","coordinates":[81.7110582,7.2507825]}},{"type":"Feature","id":"node/4039495741","properties":{"id":"node/4039495741","osmId":4039495741,"osmType":"node","name":"Makkanigama Hospital","nameSi":null,"nameTa":null,"kind":"hospital","operator":null,"beds":null,"healthcare":null},"geometry":{"type":"Point","coordinates":[80.705658,7.3463532]}},{"type":"Feature","id":"node/4045200420","properties":{"id":"node/4045200420","osmId":4045200420,"osmType":"node","name":"Base Hospital","nameSi":null,"nameTa":null,"kind":"hospital","operator":null,"beds":null,"healthcare":null},"geometry":{"type":"Point","coordinates":[80.575266,6.5786992]}},{"type":"Feature","id":"node/4045295751","properties":{"id":"node/4045295751","osmId":4045295751,"osmType":"node","name":"District Hospital","nameSi":null,"nameTa":null,"kind":"hospital","operator":null,"beds":null,"healthcare":null},"geometry":{"type":"Point","coordinates":[80.65651,6.5018627]}},{"type":"Feature","id":"node/4045303043","properties":{"id":"node/4045303043","osmId":4045303043,"osmType":"node","name":"Rakwana District Hospital","nameSi":null,"nameTa":null,"kind":"hospital","operator":null,"beds":null,"healthcare":null},"geometry":{"type":"Point","coordinates":[80.614724,6.4715878]}},{"type":"Feature","id":"node/4054671231","properties":{"id":"node/4054671231","osmId":4054671231,"osmType":"node","name":"Health Care Medical Center","nameSi":null,"nameTa":null,"kind":"clinic","operator":null,"beds":null,"healthcare":null},"geometry":{"type":"Point","coordinates":[80.0249393,6.8639937]}},{"type":"Feature","id":"node/4068054466","properties":{"id":"node/4068054466","osmId":4068054466,"osmType":"node","name":"Kotaligoda Hospital","nameSi":null,"nameTa":null,"kind":"hospital","operator":null,"beds":null,"healthcare":null},"geometry":{"type":"Point","coordinates":[80.5133213,7.2895042]}},{"type":"Feature","id":"node/4077038318","properties":{"id":"node/4077038318","osmId":4077038318,"osmType":"node","name":"Dental Ward (Colombo National Hospital)","nameSi":null,"nameTa":null,"kind":"hospital","operator":null,"beds":null,"healthcare":"dentist"},"geometry":{"type":"Point","coordinates":[79.8661463,6.9172706]}},{"type":"Feature","id":"node/4080128395","properties":{"id":"node/4080128395","osmId":4080128395,"osmType":"node","name":"Divisional Hospital Tharmapuram","nameSi":null,"nameTa":"பிரதேச வைத்தியசாலை தருமபுரம்","kind":"hospital","operator":null,"beds":null,"healthcare":null},"geometry":{"type":"Point","coordinates":[80.5174503,9.4101913]}},{"type":"Feature","id":"node/4084471911","properties":{"id":"node/4084471911","osmId":4084471911,"osmType":"node","name":"Jaela regional hospital","nameSi":null,"nameTa":null,"kind":"hospital","operator":null,"beds":null,"healthcare":null},"geometry":{"type":"Point","coordinates":[79.8940656,7.0750452]}},{"type":"Feature","id":"node/4089673111","properties":{"id":"node/4089673111","osmId":4089673111,"osmType":"node","name":"Suwasewana Hospital","nameSi":null,"nameTa":null,"kind":"hospital","operator":null,"beds":null,"healthcare":null},"geometry":{"type":"Point","coordinates":[80.6215994,7.2819521]}},{"type":"Feature","id":"node/4109862321","properties":{"id":"node/4109862321","osmId":4109862321,"osmType":"node","name":"Ever Green Hospital Pvt Ltd","nameSi":null,"nameTa":null,"kind":"hospital","operator":null,"beds":null,"healthcare":"hospital"},"geometry":{"type":"Point","coordinates":[80.1681377,9.6613214]}},{"type":"Feature","id":"node/4124124130","properties":{"id":"node/4124124130","osmId":4124124130,"osmType":"node","name":"Divisional Hospital Oddusuddan","nameSi":null,"nameTa":null,"kind":"hospital","operator":null,"beds":null,"healthcare":null},"geometry":{"type":"Point","coordinates":[80.6604767,9.1627819]}},{"type":"Feature","id":"node/4178027149","properties":{"id":"node/4178027149","osmId":4178027149,"osmType":"node","name":"Poonakary Divisional Hospital","nameSi":null,"nameTa":"பூநகரி பிரதேச வைத்தியசாலை","kind":"hospital","operator":null,"beds":null,"healthcare":null},"geometry":{"type":"Point","coordinates":[80.2080776,9.5074244]}},{"type":"Feature","id":"node/4235158961","properties":{"id":"node/4235158961","osmId":4235158961,"osmType":"node","name":"Gallinda Base Hospital","nameSi":"ගල්ලිඳ මුලික රෝහල","nameTa":null,"kind":"hospital","operator":null,"beds":null,"healthcare":"hospital"},"geometry":{"type":"Point","coordinates":[80.2678824,6.2451002]}},{"type":"Feature","id":"node/4235822103","properties":{"id":"node/4235822103","osmId":4235822103,"osmType":"node","name":"Dispensary","nameSi":null,"nameTa":null,"kind":"clinic","operator":null,"beds":null,"healthcare":"clinic"},"geometry":{"type":"Point","coordinates":[79.9726267,6.893465]}},{"type":"Feature","id":"node/4244114941","properties":{"id":"node/4244114941","osmId":4244114941,"osmType":"node","name":"Western Dispensary","nameSi":null,"nameTa":null,"kind":"hospital","operator":null,"beds":null,"healthcare":"hospital"},"geometry":{"type":"Point","coordinates":[79.8841488,6.913006]}},{"type":"Feature","id":"node/4265986683","properties":{"id":"node/4265986683","osmId":4265986683,"osmType":"node","name":"Girandurukotte Hospital","nameSi":null,"nameTa":null,"kind":"hospital","operator":null,"beds":null,"healthcare":null},"geometry":{"type":"Point","coordinates":[81.0190559,7.4693747]}},{"type":"Feature","id":"node/4271220164","properties":{"id":"node/4271220164","osmId":4271220164,"osmType":"node","name":"hiripitiya","nameSi":null,"nameTa":null,"kind":"hospital","operator":null,"beds":null,"healthcare":null},"geometry":{"type":"Point","coordinates":[80.3790486,7.6532267]}},{"type":"Feature","id":"node/4322762450","properties":{"id":"node/4322762450","osmId":4322762450,"osmType":"node","name":"Primary Medical Care Unit (PMCU) Puttur","nameSi":null,"nameTa":null,"kind":"hospital","operator":"Ministry of Health","beds":null,"healthcare":null},"geometry":{"type":"Point","coordinates":[80.1074921,9.744428]}},{"type":"Feature","id":"node/4331943023","properties":{"id":"node/4331943023","osmId":4331943023,"osmType":"node","name":"District Hospital Minuwangoda","nameSi":null,"nameTa":null,"kind":"hospital","operator":null,"beds":null,"healthcare":null},"geometry":{"type":"Point","coordinates":[79.9563284,7.1725525]}},{"type":"Feature","id":"node/4333556211","properties":{"id":"node/4333556211","osmId":4333556211,"osmType":"node","name":null,"nameSi":null,"nameTa":null,"kind":"clinic","operator":null,"beds":null,"healthcare":null},"geometry":{"type":"Point","coordinates":[79.935782,7.1657118]}},{"type":"Feature","id":"node/4350766896","properties":{"id":"node/4350766896","osmId":4350766896,"osmType":"node","name":"Meewitigammana Clinic","nameSi":null,"nameTa":null,"kind":"clinic","operator":null,"beds":null,"healthcare":null},"geometry":{"type":"Point","coordinates":[80.145235,7.080812]}},{"type":"Feature","id":"node/4350798591","properties":{"id":"node/4350798591","osmId":4350798591,"osmType":"node","name":"Bandaranayake Private Hospital","nameSi":null,"nameTa":null,"kind":"hospital","operator":null,"beds":null,"healthcare":null},"geometry":{"type":"Point","coordinates":[80.111786,7.126219]}},{"type":"Feature","id":"node/4355198590","properties":{"id":"node/4355198590","osmId":4355198590,"osmType":"node","name":"Divisional Hospital Akkarayankulam","nameSi":null,"nameTa":"பிரதேச வைத்தியசாலை - அக்கராயன்குளம்","kind":"hospital","operator":null,"beds":null,"healthcare":null},"geometry":{"type":"Point","coordinates":[80.3148952,9.3117868]}},{"type":"Feature","id":"node/4355292191","properties":{"id":"node/4355292191","osmId":4355292191,"osmType":"node","name":"Base Hospital Mulankavil","nameSi":null,"nameTa":null,"kind":"hospital","operator":null,"beds":null,"healthcare":null},"geometry":{"type":"Point","coordinates":[80.1428799,9.2436926]}},{"type":"Feature","id":"node/4355324065","properties":{"id":"node/4355324065","osmId":4355324065,"osmType":"node","name":"Divisional Hospital, Urthipuram","nameSi":null,"nameTa":"பிரதேச வைத்தியசாலை - உருத்திரபுரம்","kind":"hospital","operator":null,"beds":null,"healthcare":null},"geometry":{"type":"Point","coordinates":[80.3582977,9.3929259]}},{"type":"Feature","id":"node/4361510689","properties":{"id":"node/4361510689","osmId":4361510689,"osmType":"node","name":null,"nameSi":null,"nameTa":null,"kind":"hospital","operator":null,"beds":null,"healthcare":null},"geometry":{"type":"Point","coordinates":[80.2475954,6.0202465]}},{"type":"Feature","id":"node/4362941945","properties":{"id":"node/4362941945","osmId":4362941945,"osmType":"node","name":"Divisional Hospital - Maruthankerny","nameSi":null,"nameTa":"பிரதேச வைத்தியசாலை - மருதங்கேணி","kind":"hospital","operator":null,"beds":null,"healthcare":null},"geometry":{"type":"Point","coordinates":[80.3968237,9.6220356]}},{"type":"Feature","id":"node/4368066690","properties":{"id":"node/4368066690","osmId":4368066690,"osmType":"node","name":"Ayurvedic Health Centre","nameSi":null,"nameTa":null,"kind":"clinic","operator":null,"beds":null,"healthcare":"clinic"},"geometry":{"type":"Point","coordinates":[80.3277823,9.6107627]}},{"type":"Feature","id":"node/4369428011","properties":{"id":"node/4369428011","osmId":4369428011,"osmType":"node","name":"Suharni Clinic","nameSi":null,"nameTa":null,"kind":"clinic","operator":null,"beds":null,"healthcare":"clinic"},"geometry":{"type":"Point","coordinates":[80.0202615,9.6726284]}},{"type":"Feature","id":"node/4370700755","properties":{"id":"node/4370700755","osmId":4370700755,"osmType":"node","name":"Tellipalai Co-operative Hospital","nameSi":null,"nameTa":null,"kind":"hospital","operator":null,"beds":null,"healthcare":"hospital"},"geometry":{"type":"Point","coordinates":[80.0311803,9.7743309]}},{"type":"Feature","id":"node/4373836089","properties":{"id":"node/4373836089","osmId":4373836089,"osmType":"node","name":null,"nameSi":null,"nameTa":null,"kind":"hospital","operator":null,"beds":null,"healthcare":null},"geometry":{"type":"Point","coordinates":[81.6758569,7.2919632]}},{"type":"Feature","id":"node/4374453492","properties":{"id":"node/4374453492","osmId":4374453492,"osmType":"node","name":null,"nameSi":null,"nameTa":null,"kind":"hospital","operator":null,"beds":null,"healthcare":"hospital"},"geometry":{"type":"Point","coordinates":[80.2059903,9.8019129]}},{"type":"Feature","id":"node/4388764311","properties":{"id":"node/4388764311","osmId":4388764311,"osmType":"node","name":"Trail Cancer Hospital Tellipalai","nameSi":null,"nameTa":null,"kind":"clinic","operator":"Ministry of Health","beds":null,"healthcare":"clinic"},"geometry":{"type":"Point","coordinates":[80.0407495,9.7851693]}},{"type":"Feature","id":"node/4395603151","properties":{"id":"node/4395603151","osmId":4395603151,"osmType":"node","name":"Divisional Hospital - Atchuvely","nameSi":null,"nameTa":"பிரதேச வைத்தியசாலை அச்சுவேலி","kind":"hospital","operator":null,"beds":null,"healthcare":"hospital"},"geometry":{"type":"Point","coordinates":[80.1154777,9.7727802]}},{"type":"Feature","id":"node/4405229473","properties":{"id":"node/4405229473","osmId":4405229473,"osmType":"node","name":"Divisional Hospital Vidathalthivu","nameSi":null,"nameTa":"பிரதேச வைத்தியசாலை விடத்தல்தீவு","kind":"hospital","operator":null,"beds":null,"healthcare":null},"geometry":{"type":"Point","coordinates":[80.0655415,9.0109302]}},{"type":"Feature","id":"node/4405236389","properties":{"id":"node/4405236389","osmId":4405236389,"osmType":"node","name":"Divisional Hospital Adampan","nameSi":null,"nameTa":null,"kind":"hospital","operator":null,"beds":null,"healthcare":null},"geometry":{"type":"Point","coordinates":[79.9966791,8.943329]}},{"type":"Feature","id":"node/4405536098","properties":{"id":"node/4405536098","osmId":4405536098,"osmType":"node","name":"Batumulla Divisional Hospital","nameSi":null,"nameTa":null,"kind":"hospital","operator":null,"beds":null,"healthcare":null},"geometry":{"type":"Point","coordinates":[80.9369035,7.4142948]}},{"type":"Feature","id":"node/4405856550","properties":{"id":"node/4405856550","osmId":4405856550,"osmType":"node","name":"Divisional Hospital Murunkan","nameSi":null,"nameTa":null,"kind":"hospital","operator":null,"beds":null,"healthcare":null},"geometry":{"type":"Point","coordinates":[80.0378205,8.8366766]}},{"type":"Feature","id":"node/4427455196","properties":{"id":"node/4427455196","osmId":4427455196,"osmType":"node","name":null,"nameSi":null,"nameTa":null,"kind":"clinic","operator":null,"beds":null,"healthcare":null},"geometry":{"type":"Point","coordinates":[81.7873693,7.539188]}},{"type":"Feature","id":"node/4428987893","properties":{"id":"node/4428987893","osmId":4428987893,"osmType":"node","name":"Narampanawa Government Hospital","nameSi":null,"nameTa":null,"kind":"hospital","operator":null,"beds":null,"healthcare":null},"geometry":{"type":"Point","coordinates":[80.7319772,7.3436413]}},{"type":"Feature","id":"node/4430211089","properties":{"id":"node/4430211089","osmId":4430211089,"osmType":"node","name":"Divisional Hospital Kothmale","nameSi":null,"nameTa":null,"kind":"hospital","operator":null,"beds":null,"healthcare":"hospital"},"geometry":{"type":"Point","coordinates":[80.6854689,7.062514]}},{"type":"Feature","id":"node/4430321691","properties":{"id":"node/4430321691","osmId":4430321691,"osmType":"node","name":null,"nameSi":null,"nameTa":null,"kind":"clinic","operator":null,"beds":null,"healthcare":null},"geometry":{"type":"Point","coordinates":[81.6984927,7.7184761]}},{"type":"Feature","id":"node/4435680089","properties":{"id":"node/4435680089","osmId":4435680089,"osmType":"node","name":null,"nameSi":null,"nameTa":null,"kind":"clinic","operator":null,"beds":null,"healthcare":null},"geometry":{"type":"Point","coordinates":[80.124751,7.166151]}},{"type":"Feature","id":"node/4438936190","properties":{"id":"node/4438936190","osmId":4438936190,"osmType":"node","name":"Primary Medical Care Unit (PMCU) Uduvil","nameSi":null,"nameTa":null,"kind":"hospital","operator":"Government of Sri Lanka","beds":null,"healthcare":null},"geometry":{"type":"Point","coordinates":[80.0068443,9.7320752]}},{"type":"Feature","id":"node/4438983889","properties":{"id":"node/4438983889","osmId":4438983889,"osmType":"node","name":"Divisional Hospital Manipay","nameSi":null,"nameTa":null,"kind":"hospital","operator":"Ministry of Health","beds":null,"healthcare":null},"geometry":{"type":"Point","coordinates":[79.9927087,9.7029955]}},{"type":"Feature","id":"node/4443856594","properties":{"id":"node/4443856594","osmId":4443856594,"osmType":"node","name":"Divisional Hospital Bogawanthalawa","nameSi":null,"nameTa":null,"kind":"hospital","operator":null,"beds":null,"healthcare":null},"geometry":{"type":"Point","coordinates":[80.6784721,6.794878]}},{"type":"Feature","id":"node/4443922076","properties":{"id":"node/4443922076","osmId":4443922076,"osmType":"node","name":"Agarapatana Divisional Hospital","nameSi":null,"nameTa":null,"kind":"hospital","operator":null,"beds":null,"healthcare":null},"geometry":{"type":"Point","coordinates":[80.6852925,6.8701143]}},{"type":"Feature","id":"node/4448713191","properties":{"id":"node/4448713191","osmId":4448713191,"osmType":"node","name":null,"nameSi":null,"nameTa":null,"kind":"clinic","operator":null,"beds":null,"healthcare":null},"geometry":{"type":"Point","coordinates":[80.0447068,7.4720346]}},{"type":"Feature","id":"node/4448911930","properties":{"id":"node/4448911930","osmId":4448911930,"osmType":"node","name":"Divisional Hospital Gurunagar","nameSi":null,"nameTa":null,"kind":"hospital","operator":"Ministry of Health, Nutrition and Indigenous Medicine","beds":null,"healthcare":"hospital"},"geometry":{"type":"Point","coordinates":[80.0195767,9.6525893]}},{"type":"Feature","id":"node/4448921568","properties":{"id":"node/4448921568","osmId":4448921568,"osmType":"node","name":"Divisional Hospital Ilavalai","nameSi":null,"nameTa":null,"kind":"hospital","operator":"Ministry of Health","beds":null,"healthcare":"hospital"},"geometry":{"type":"Point","coordinates":[79.9942839,9.7989445]}},{"type":"Feature","id":"node/4449065628","properties":{"id":"node/4449065628","osmId":4449065628,"osmType":"node","name":null,"nameSi":null,"nameTa":null,"kind":"hospital","operator":"Ministry of Health","beds":null,"healthcare":"hospital"},"geometry":{"type":"Point","coordinates":[80.2038454,9.7932917]}},{"type":"Feature","id":"node/4449392003","properties":{"id":"node/4449392003","osmId":4449392003,"osmType":"node","name":"Primary Medical Care Unit Point Pedro","nameSi":null,"nameTa":null,"kind":"hospital","operator":"Ministry of Health, Nutrition and Indigenous Medicine","beds":null,"healthcare":"hospital"},"geometry":{"type":"Point","coordinates":[80.2385715,9.8234617]}},{"type":"Feature","id":"node/4451031394","properties":{"id":"node/4451031394","osmId":4451031394,"osmType":"node","name":null,"nameSi":null,"nameTa":null,"kind":"hospital","operator":"Ministry of Health, Nutrition and Indigenous Medicine","beds":null,"healthcare":"hospital"},"geometry":{"type":"Point","coordinates":[80.2366658,9.6778861]}},{"type":"Feature","id":"node/4451051809","properties":{"id":"node/4451051809","osmId":4451051809,"osmType":"node","name":"Divisional Hospital Varany","nameSi":null,"nameTa":null,"kind":"hospital","operator":"Ministry of Health","beds":null,"healthcare":null},"geometry":{"type":"Point","coordinates":[80.2261638,9.7295995]}},{"type":"Feature","id":"node/4451163156","properties":{"id":"node/4451163156","osmId":4451163156,"osmType":"node","name":"Primary Medical Care Unit (PMCU) Kurumpasiddy","nameSi":null,"nameTa":null,"kind":"hospital","operator":"Ministry of Health","beds":null,"healthcare":"hospital"},"geometry":{"type":"Point","coordinates":[80.0636819,9.7727859]}},{"type":"Feature","id":"node/4451525458","properties":{"id":"node/4451525458","osmId":4451525458,"osmType":"node","name":"Pussellawa Hospital","nameSi":null,"nameTa":null,"kind":"hospital","operator":null,"beds":null,"healthcare":null},"geometry":{"type":"Point","coordinates":[80.6252466,7.1162933]}},{"type":"Feature","id":"node/4452191892","properties":{"id":"node/4452191892","osmId":4452191892,"osmType":"node","name":"Sidha Medicine Teaching Hospital","nameSi":null,"nameTa":null,"kind":"hospital","operator":"Ministry of Health, Nutrition and Indigenous Medicine","beds":null,"healthcare":"hospital"},"geometry":{"type":"Point","coordinates":[80.0941832,9.6704278]}},{"type":"Feature","id":"node/4452191894","properties":{"id":"node/4452191894","osmId":4452191894,"osmType":"node","name":"Primary Medical Care Unit (PMCU) Kaithady","nameSi":null,"nameTa":null,"kind":"hospital","operator":"Government of Sri Lanka","beds":null,"healthcare":"hospital"},"geometry":{"type":"Point","coordinates":[80.0919317,9.672913]}},{"type":"Feature","id":"node/4452212068","properties":{"id":"node/4452212068","osmId":4452212068,"osmType":"node","name":"Primary Medical Care Unit (PMCU) Punnalaikadduvan","nameSi":null,"nameTa":null,"kind":"hospital","operator":"Ministry of Health","beds":null,"healthcare":null},"geometry":{"type":"Point","coordinates":[80.058077,9.750513]}},{"type":"Feature","id":"node/4452212069","properties":{"id":"node/4452212069","osmId":4452212069,"osmType":"node","name":"Primary Medical Care Unit (PMCU) Urumpirai","nameSi":null,"nameTa":null,"kind":"hospital","operator":"Ministry of Education","beds":null,"healthcare":null},"geometry":{"type":"Point","coordinates":[80.0459595,9.7203939]}},{"type":"Feature","id":"node/4452972822","properties":{"id":"node/4452972822","osmId":4452972822,"osmType":"node","name":"Divisional Hospital Nainativu","nameSi":null,"nameTa":null,"kind":"hospital","operator":"Government of Sri Lanka","beds":null,"healthcare":"hospital"},"geometry":{"type":"Point","coordinates":[79.7730665,9.6048881]}},{"type":"Feature","id":"node/4454568727","properties":{"id":"node/4454568727","osmId":4454568727,"osmType":"node","name":"Base Hospital Mallavi","nameSi":null,"nameTa":"மல்லாவி ஆதார வைத்தியசாலை","kind":"hospital","operator":null,"beds":null,"healthcare":null},"geometry":{"type":"Point","coordinates":[80.3087492,9.1346083]}},{"type":"Feature","id":"node/4455801356","properties":{"id":"node/4455801356","osmId":4455801356,"osmType":"node","name":"Primary Medical Care Unit (PMCU) Tholpuram","nameSi":null,"nameTa":null,"kind":"hospital","operator":"Ministry of Health","beds":null,"healthcare":"hospital"},"geometry":{"type":"Point","coordinates":[79.9385407,9.7571322]}},{"type":"Feature","id":"node/4463320391","properties":{"id":"node/4463320391","osmId":4463320391,"osmType":"node","name":null,"nameSi":null,"nameTa":null,"kind":"clinic","operator":null,"beds":null,"healthcare":null},"geometry":{"type":"Point","coordinates":[79.8225221,7.9065457]}},{"type":"Feature","id":"node/4469448559","properties":{"id":"node/4469448559","osmId":4469448559,"osmType":"node","name":"Primary Medical Care Unit (PMCU) Inuvil","nameSi":null,"nameTa":null,"kind":"hospital","operator":"Ministry of Health","beds":null,"healthcare":null},"geometry":{"type":"Point","coordinates":[80.0180701,9.7165166]}},{"type":"Feature","id":"node/4481217105","properties":{"id":"node/4481217105","osmId":4481217105,"osmType":"node","name":"Rural Hospital","nameSi":null,"nameTa":null,"kind":"hospital","operator":null,"beds":null,"healthcare":null},"geometry":{"type":"Point","coordinates":[80.6137895,5.9483687]}},{"type":"Feature","id":"node/4508547889","properties":{"id":"node/4508547889","osmId":4508547889,"osmType":"node","name":null,"nameSi":null,"nameTa":null,"kind":"clinic","operator":null,"beds":null,"healthcare":"clinic"},"geometry":{"type":"Point","coordinates":[79.9051056,6.8938928]}},{"type":"Feature","id":"node/4511560692","properties":{"id":"node/4511560692","osmId":4511560692,"osmType":"node","name":"CeyMed Lab","nameSi":null,"nameTa":null,"kind":"clinic","operator":null,"beds":null,"healthcare":"clinic"},"geometry":{"type":"Point","coordinates":[80.0136886,9.6656339]}},{"type":"Feature","id":"node/4511560703","properties":{"id":"node/4511560703","osmId":4511560703,"osmType":"node","name":"Durdans Lab","nameSi":null,"nameTa":null,"kind":"clinic","operator":null,"beds":null,"healthcare":"clinic"},"geometry":{"type":"Point","coordinates":[80.013504,9.6655861]}},{"type":"Feature","id":"node/4515019298","properties":{"id":"node/4515019298","osmId":4515019298,"osmType":"node","name":null,"nameSi":null,"nameTa":null,"kind":"hospital","operator":null,"beds":null,"healthcare":null},"geometry":{"type":"Point","coordinates":[81.5484357,6.9062215]}},{"type":"Feature","id":"node/4524348589","properties":{"id":"node/4524348589","osmId":4524348589,"osmType":"node","name":null,"nameSi":null,"nameTa":null,"kind":"hospital","operator":null,"beds":null,"healthcare":null},"geometry":{"type":"Point","coordinates":[79.9445982,9.7215804]}},{"type":"Feature","id":"node/4547311821","properties":{"id":"node/4547311821","osmId":4547311821,"osmType":"node","name":null,"nameSi":null,"nameTa":null,"kind":"hospital","operator":null,"beds":null,"healthcare":null},"geometry":{"type":"Point","coordinates":[80.0649518,9.7061641]}},{"type":"Feature","id":"node/4548786091","properties":{"id":"node/4548786091","osmId":4548786091,"osmType":"node","name":null,"nameSi":null,"nameTa":null,"kind":"clinic","operator":"Dr Prabath Jayatissa","beds":null,"healthcare":"clinic"},"geometry":{"type":"Point","coordinates":[79.9232972,6.6781131]}},{"type":"Feature","id":"node/4550018412","properties":{"id":"node/4550018412","osmId":4550018412,"osmType":"node","name":"Sri Ram Clinic","nameSi":null,"nameTa":null,"kind":"clinic","operator":null,"beds":null,"healthcare":"clinic"},"geometry":{"type":"Point","coordinates":[80.2010847,9.8005993]}},{"type":"Feature","id":"node/4550018413","properties":{"id":"node/4550018413","osmId":4550018413,"osmType":"node","name":"Nelliyady Clinic","nameSi":null,"nameTa":null,"kind":"clinic","operator":null,"beds":null,"healthcare":"clinic"},"geometry":{"type":"Point","coordinates":[80.2029228,9.8043108]}},{"type":"Feature","id":"node/4550018414","properties":{"id":"node/4550018414","osmId":4550018414,"osmType":"node","name":"Suthokumar Clinic","nameSi":null,"nameTa":null,"kind":"clinic","operator":null,"beds":null,"healthcare":"clinic"},"geometry":{"type":"Point","coordinates":[80.2030107,9.8046656]}},{"type":"Feature","id":"node/4551123491","properties":{"id":"node/4551123491","osmId":4551123491,"osmType":"node","name":null,"nameSi":null,"nameTa":null,"kind":"clinic","operator":null,"beds":null,"healthcare":"clinic"},"geometry":{"type":"Point","coordinates":[79.9799128,6.628901]}},{"type":"Feature","id":"node/4559872885","properties":{"id":"node/4559872885","osmId":4559872885,"osmType":"node","name":"Public Health Centre","nameSi":null,"nameTa":null,"kind":"clinic","operator":null,"beds":null,"healthcare":null},"geometry":{"type":"Point","coordinates":[80.1126233,6.1267269]}},{"type":"Feature","id":"node/4561921830","properties":{"id":"node/4561921830","osmId":4561921830,"osmType":"node","name":null,"nameSi":null,"nameTa":null,"kind":"hospital","operator":null,"beds":null,"healthcare":null},"geometry":{"type":"Point","coordinates":[79.9978653,9.7254467]}},{"type":"Feature","id":"node/4580651001","properties":{"id":"node/4580651001","osmId":4580651001,"osmType":"node","name":"Ceymed","nameSi":null,"nameTa":null,"kind":"clinic","operator":null,"beds":null,"healthcare":"clinic"},"geometry":{"type":"Point","coordinates":[79.8865226,6.8683664]}},{"type":"Feature","id":"node/4595801052","properties":{"id":"node/4595801052","osmId":4595801052,"osmType":"node","name":"Western Dispensary","nameSi":null,"nameTa":null,"kind":"hospital","operator":"Health Cursive Department, Colombo Municipal Council","beds":null,"healthcare":"hospital"},"geometry":{"type":"Point","coordinates":[79.8712782,6.8926568]}},{"type":"Feature","id":"node/4613347089","properties":{"id":"node/4613347089","osmId":4613347089,"osmType":"node","name":null,"nameSi":null,"nameTa":null,"kind":"clinic","operator":null,"beds":null,"healthcare":"clinic"},"geometry":{"type":"Point","coordinates":[80.363617,7.4881827]}},{"type":"Feature","id":"node/4631865301","properties":{"id":"node/4631865301","osmId":4631865301,"osmType":"node","name":"Government Dispensery","nameSi":null,"nameTa":null,"kind":"hospital","operator":null,"beds":null,"healthcare":null},"geometry":{"type":"Point","coordinates":[80.117468,6.9767207]}},{"type":"Feature","id":"node/4653891140","properties":{"id":"node/4653891140","osmId":4653891140,"osmType":"node","name":null,"nameSi":null,"nameTa":null,"kind":"hospital","operator":null,"beds":null,"healthcare":"hospital"},"geometry":{"type":"Point","coordinates":[79.8647627,6.8723658]}},{"type":"Feature","id":"node/4682730891","properties":{"id":"node/4682730891","osmId":4682730891,"osmType":"node","name":null,"nameSi":null,"nameTa":null,"kind":"hospital","operator":null,"beds":null,"healthcare":null},"geometry":{"type":"Point","coordinates":[80.0994826,6.1407286]}},{"type":"Feature","id":"node/4704694322","properties":{"id":"node/4704694322","osmId":4704694322,"osmType":"node","name":"Vasan Eye Care","nameSi":null,"nameTa":null,"kind":"hospital","operator":null,"beds":null,"healthcare":"hospital"},"geometry":{"type":"Point","coordinates":[79.8530752,6.9017271]}},{"type":"Feature","id":"node/4731459322","properties":{"id":"node/4731459322","osmId":4731459322,"osmType":"node","name":null,"nameSi":null,"nameTa":null,"kind":"hospital","operator":null,"beds":null,"healthcare":null},"geometry":{"type":"Point","coordinates":[80.0231452,8.8141025]}},{"type":"Feature","id":"node/4741171622","properties":{"id":"node/4741171622","osmId":4741171622,"osmType":"node","name":null,"nameSi":null,"nameTa":null,"kind":"hospital","operator":null,"beds":null,"healthcare":null},"geometry":{"type":"Point","coordinates":[81.6278567,7.4503257]}},{"type":"Feature","id":"node/4741177121","properties":{"id":"node/4741177121","osmId":4741177121,"osmType":"node","name":"District General Hospital Ampara","nameSi":null,"nameTa":null,"kind":"hospital","operator":null,"beds":null,"healthcare":null},"geometry":{"type":"Point","coordinates":[81.6892025,7.29895]}},{"type":"Feature","id":"node/4769140821","properties":{"id":"node/4769140821","osmId":4769140821,"osmType":"node","name":"Malagala Ayurvedic Medical Center","nameSi":null,"nameTa":null,"kind":"clinic","operator":null,"beds":null,"healthcare":null},"geometry":{"type":"Point","coordinates":[80.1092876,6.7893367]}},{"type":"Feature","id":"node/4769140823","properties":{"id":"node/4769140823","osmId":4769140823,"osmType":"node","name":"Maternal & Child Health Clinic Malagala","nameSi":null,"nameTa":null,"kind":"clinic","operator":"Government","beds":null,"healthcare":null},"geometry":{"type":"Point","coordinates":[80.1092341,6.7894084]}},{"type":"Feature","id":"node/4772203117","properties":{"id":"node/4772203117","osmId":4772203117,"osmType":"node","name":"Maternal & Child Health Clinic","nameSi":null,"nameTa":null,"kind":"clinic","operator":null,"beds":null,"healthcare":"clinic"},"geometry":{"type":"Point","coordinates":[79.8857399,6.8369752]}},{"type":"Feature","id":"node/4833926653","properties":{"id":"node/4833926653","osmId":4833926653,"osmType":"node","name":"Car Park","nameSi":null,"nameTa":null,"kind":"hospital","operator":null,"beds":null,"healthcare":"hospital"},"geometry":{"type":"Point","coordinates":[80.2162355,6.0365933]}},{"type":"Feature","id":"node/4833926726","properties":{"id":"node/4833926726","osmId":4833926726,"osmType":"node","name":"Dambagalla rural hospital","nameSi":null,"nameTa":null,"kind":"hospital","operator":null,"beds":null,"healthcare":null},"geometry":{"type":"Point","coordinates":[81.3750928,6.9799565]}},{"type":"Feature","id":"node/4884211665","properties":{"id":"node/4884211665","osmId":4884211665,"osmType":"node","name":"Kamburupitiya Base Hospital","nameSi":null,"nameTa":null,"kind":"hospital","operator":null,"beds":null,"healthcare":null},"geometry":{"type":"Point","coordinates":[80.5647207,6.0957342]}},{"type":"Feature","id":"node/4885968676","properties":{"id":"node/4885968676","osmId":4885968676,"osmType":"node","name":"Keppetipola Dispensary","nameSi":null,"nameTa":null,"kind":"hospital","operator":null,"beds":null,"healthcare":null},"geometry":{"type":"Point","coordinates":[80.8743927,6.8961677]}},