{"type":"FeatureCollection","metadata":{"source":"OpenStreetMap","license":"ODbL","fetchedAt":"2026-04-19T21:45:39.158Z","query":"railway=rail|narrow_gauge + railway=station|halt"},"features":[{"type":"Feature","id":"node/61602781","properties":{"id":"node/61602781","osmId":61602781,"osmType":"node","name":"Kumarakanda","nameSi":null,"nameTa":null,"kind":"station"},"geometry":{"type":"Point","coordinates":[80.1242871,6.1124485]}},{"type":"Feature","id":"node/87762356","properties":{"id":"node/87762356","osmId":87762356,"osmType":"node","name":"Piyadigama","nameSi":null,"nameTa":null,"kind":"station"},"geometry":{"type":"Point","coordinates":[80.1909694,6.0536503]}},{"type":"Feature","id":"node/91029612","properties":{"id":"node/91029612","osmId":91029612,"osmType":"node","name":"Thiranagama","nameSi":null,"nameTa":null,"kind":"station"},"geometry":{"type":"Point","coordinates":[80.1143858,6.1223145]}},{"type":"Feature","id":"node/91036830","properties":{"id":"node/91036830","osmId":91036830,"osmType":"node","name":"Gintota","nameSi":null,"nameTa":null,"kind":"station"},"geometry":{"type":"Point","coordinates":[80.1793892,6.0606665]}},{"type":"Feature","id":"node/92058899","properties":{"id":"node/92058899","osmId":92058899,"osmType":"node","name":"Payagala South","nameSi":null,"nameTa":null,"kind":"station"},"geometry":{"type":"Point","coordinates":[79.9789255,6.5218897]}},{"type":"Feature","id":"node/92124678","properties":{"id":"node/92124678","osmId":92124678,"osmType":"node","name":"Dodanduwa","nameSi":null,"nameTa":null,"kind":"station"},"geometry":{"type":"Point","coordinates":[80.1328946,6.0981764]}},{"type":"Feature","id":"node/92126866","properties":{"id":"node/92126866","osmId":92126866,"osmType":"node","name":"Seenigama","nameSi":null,"nameTa":null,"kind":"station"},"geometry":{"type":"Point","coordinates":[80.094758,6.1586793]}},{"type":"Feature","id":"node/92126920","properties":{"id":"node/92126920","osmId":92126920,"osmType":"node","name":"Kahawe","nameSi":null,"nameTa":null,"kind":"station"},"geometry":{"type":"Point","coordinates":[80.073997,6.1831844]}},{"type":"Feature","id":"node/92128330","properties":{"id":"node/92128330","osmId":92128330,"osmType":"node","name":"Madampagama","nameSi":null,"nameTa":null,"kind":"station"},"geometry":{"type":"Point","coordinates":[80.0612425,6.2122769]}},{"type":"Feature","id":"node/92128703","properties":{"id":"node/92128703","osmId":92128703,"osmType":"node","name":"Balapitiya","nameSi":null,"nameTa":null,"kind":"station"},"geometry":{"type":"Point","coordinates":[80.0433723,6.2764631]}},{"type":"Feature","id":"node/92128815","properties":{"id":"node/92128815","osmId":92128815,"osmType":"node","name":"Ahungalla","nameSi":null,"nameTa":null,"kind":"station"},"geometry":{"type":"Point","coordinates":[80.0375793,6.3127714]}},{"type":"Feature","id":"node/92128871","properties":{"id":"node/92128871","osmId":92128871,"osmType":"node","name":"Kosgoda","nameSi":null,"nameTa":null,"kind":"station"},"geometry":{"type":"Point","coordinates":[80.0294476,6.3385359]}},{"type":"Feature","id":"node/92129026","properties":{"id":"node/92129026","osmId":92129026,"osmType":"node","name":"Richmond Hill","nameSi":null,"nameTa":null,"kind":"station"},"geometry":{"type":"Point","coordinates":[80.2048071,6.0539303]}},{"type":"Feature","id":"node/92132195","properties":{"id":"node/92132195","osmId":92132195,"osmType":"node","name":"Secretariat Halt","nameSi":null,"nameTa":null,"kind":"station"},"geometry":{"type":"Point","coordinates":[79.8460198,6.9314456]}},{"type":"Feature","id":"node/304322071","properties":{"id":"node/304322071","osmId":304322071,"osmType":"node","name":"Wanawasala","nameSi":null,"nameTa":null,"kind":"station"},"geometry":{"type":"Point","coordinates":[79.8993572,6.9755509]}},{"type":"Feature","id":"node/338554325","properties":{"id":"node/338554325","osmId":338554325,"osmType":"node","name":"Watagoda","nameSi":null,"nameTa":null,"kind":"station"},"geometry":{"type":"Point","coordinates":[80.6528447,6.9688843]}},{"type":"Feature","id":"node/347323226","properties":{"id":"node/347323226","osmId":347323226,"osmType":"node","name":"Bujjomuwa","nameSi":null,"nameTa":null,"kind":"station"},"geometry":{"type":"Point","coordinates":[80.2106384,7.2731777]}},{"type":"Feature","id":"node/347323232","properties":{"id":"node/347323232","osmId":347323232,"osmType":"node","name":"Yaththalgoda","nameSi":null,"nameTa":null,"kind":"station"},"geometry":{"type":"Point","coordinates":[80.1943101,7.270437]}},{"type":"Feature","id":"node/347323242","properties":{"id":"node/347323242","osmId":347323242,"osmType":"node","name":"Ambepussa Railway Station","nameSi":null,"nameTa":null,"kind":"station"},"geometry":{"type":"Point","coordinates":[80.1693049,7.2559962]}},{"type":"Feature","id":"node/347323250","properties":{"id":"node/347323250","osmId":347323250,"osmType":"node","name":"Botale","nameSi":null,"nameTa":null,"kind":"station"},"geometry":{"type":"Point","coordinates":[80.1531824,7.2565981]}},{"type":"Feature","id":"node/347323315","properties":{"id":"node/347323315","osmId":347323315,"osmType":"node","name":"Batuwatta","nameSi":null,"nameTa":null,"kind":"station"},"geometry":{"type":"Point","coordinates":[79.9372147,7.0551005]}},{"type":"Feature","id":"node/619234325","properties":{"id":"node/619234325","osmId":619234325,"osmType":"node","name":"Dematagoda","nameSi":null,"nameTa":null,"kind":"station"},"geometry":{"type":"Point","coordinates":[79.8790153,6.937547]}},{"type":"Feature","id":"node/892780206","properties":{"id":"node/892780206","osmId":892780206,"osmType":"node","name":"Great Western","nameSi":null,"nameTa":null,"kind":"station"},"geometry":{"type":"Point","coordinates":[80.6891016,6.9572412]}},{"type":"Feature","id":"node/897870746","properties":{"id":"node/897870746","osmId":897870746,"osmType":"node","name":"Talawakele","nameSi":null,"nameTa":null,"kind":"station"},"geometry":{"type":"Point","coordinates":[80.6609908,6.9400481]}},{"type":"Feature","id":"node/1128187926","properties":{"id":"node/1128187926","osmId":1128187926,"osmType":"node","name":"Cotta Road","nameSi":null,"nameTa":null,"kind":"station"},"geometry":{"type":"Point","coordinates":[79.8845224,6.9133542]}},{"type":"Feature","id":"node/1128188042","properties":{"id":"node/1128188042","osmId":1128188042,"osmType":"node","name":"Kirulapona","nameSi":null,"nameTa":null,"kind":"station"},"geometry":{"type":"Point","coordinates":[79.8828978,6.8830467]}},{"type":"Feature","id":"node/1128188069","properties":{"id":"node/1128188069","osmId":1128188069,"osmType":"node","name":"Nawinna","nameSi":null,"nameTa":null,"kind":"station"},"geometry":{"type":"Point","coordinates":[79.9178611,6.8528888]}},{"type":"Feature","id":"node/1128188513","properties":{"id":"node/1128188513","osmId":1128188513,"osmType":"node","name":"Avissawella","nameSi":null,"nameTa":null,"kind":"station"},"geometry":{"type":"Point","coordinates":[80.2070547,6.954549]}},{"type":"Feature","id":"node/1128190754","properties":{"id":"node/1128190754","osmId":1128190754,"osmType":"node","name":"Narahenpita","nameSi":null,"nameTa":null,"kind":"station"},"geometry":{"type":"Point","coordinates":[79.8780613,6.8969122]}},{"type":"Feature","id":"node/1128191571","properties":{"id":"node/1128191571","osmId":1128191571,"osmType":"node","name":"Kosgama","nameSi":null,"nameTa":null,"kind":"station"},"geometry":{"type":"Point","coordinates":[80.1372925,6.9406031]}},{"type":"Feature","id":"node/1128191687","properties":{"id":"node/1128191687","osmId":1128191687,"osmType":"node","name":"Waga","nameSi":null,"nameTa":null,"kind":"station"},"geometry":{"type":"Point","coordinates":[80.1276619,6.9013533]}},{"type":"Feature","id":"node/1128192639","properties":{"id":"node/1128192639","osmId":1128192639,"osmType":"node","name":"Udahamulla","nameSi":null,"nameTa":null,"kind":"station"},"geometry":{"type":"Point","coordinates":[79.9087271,6.8622118]}},{"type":"Feature","id":"node/1128193060","properties":{"id":"node/1128193060","osmId":1128193060,"osmType":"node","name":"Padukka","nameSi":null,"nameTa":null,"kind":"station"},"geometry":{"type":"Point","coordinates":[80.0911536,6.8427474]}},{"type":"Feature","id":"node/1128194191","properties":{"id":"node/1128194191","osmId":1128194191,"osmType":"node","name":"Baseline Road","nameSi":null,"nameTa":null,"kind":"station"},"geometry":{"type":"Point","coordinates":[79.8785882,6.926363]}},{"type":"Feature","id":"node/1137448708","properties":{"id":"node/1137448708","osmId":1137448708,"osmType":"node","name":"Chilaw","nameSi":null,"nameTa":null,"kind":"station"},"geometry":{"type":"Point","coordinates":[79.7909316,7.5757856]}},{"type":"Feature","id":"node/1137449047","properties":{"id":"node/1137449047","osmId":1137449047,"osmType":"node","name":"Manuwangama","nameSi":null,"nameTa":null,"kind":"station"},"geometry":{"type":"Point","coordinates":[79.8274738,7.6006132]}},{"type":"Feature","id":"node/1137449199","properties":{"id":"node/1137449199","osmId":1137449199,"osmType":"node","name":"Kiriyankalli","nameSi":null,"nameTa":null,"kind":"station"},"geometry":{"type":"Point","coordinates":[79.8282517,7.7571732]}},{"type":"Feature","id":"node/1137449334","properties":{"id":"node/1137449334","osmId":1137449334,"osmType":"node","name":"Walahapitiya","nameSi":null,"nameTa":null,"kind":"station"},"geometry":{"type":"Point","coordinates":[79.8591858,7.439463]}},{"type":"Feature","id":"node/1137449404","properties":{"id":"node/1137449404","osmId":1137449404,"osmType":"node","name":"Kudawewa","nameSi":null,"nameTa":null,"kind":"station"},"geometry":{"type":"Point","coordinates":[79.8530119,7.4621812]}},{"type":"Feature","id":"node/1137449524","properties":{"id":"node/1137449524","osmId":1137449524,"osmType":"node","name":"Kakkapalliya","nameSi":null,"nameTa":null,"kind":"station"},"geometry":{"type":"Point","coordinates":[79.8227037,7.5328175]}},{"type":"Feature","id":"node/1137449691","properties":{"id":"node/1137449691","osmId":1137449691,"osmType":"node","name":"Mundalama","nameSi":null,"nameTa":null,"kind":"station"},"geometry":{"type":"Point","coordinates":[79.8256822,7.7975461]}},{"type":"Feature","id":"node/1137449694","properties":{"id":"node/1137449694","osmId":1137449694,"osmType":"node","name":"Bangadeniya","nameSi":null,"nameTa":null,"kind":"station"},"geometry":{"type":"Point","coordinates":[79.8286013,7.6272671]}},{"type":"Feature","id":"node/1138324718","properties":{"id":"node/1138324718","osmId":1138324718,"osmType":"node","name":"Pinwatta","nameSi":null,"nameTa":null,"kind":"station"},"geometry":{"type":"Point","coordinates":[79.9159943,6.6859877]}},{"type":"Feature","id":"node/1138324992","properties":{"id":"node/1138324992","osmId":1138324992,"osmType":"node","name":"Katukurunda","nameSi":null,"nameTa":null,"kind":"station"},"geometry":{"type":"Point","coordinates":[79.9661171,6.5601254]}},{"type":"Feature","id":"node/1138479649","properties":{"id":"node/1138479649","osmId":1138479649,"osmType":"node","name":"Induruwa","nameSi":null,"nameTa":null,"kind":"station"},"geometry":{"type":"Point","coordinates":[80.0086384,6.3873819]}},{"type":"Feature","id":"node/1138479797","properties":{"id":"node/1138479797","osmId":1138479797,"osmType":"node","name":"Maha Induruwa","nameSi":null,"nameTa":null,"kind":"station"},"geometry":{"type":"Point","coordinates":[80.0139361,6.3643888]}},{"type":"Feature","id":"node/1138479999","properties":{"id":"node/1138479999","osmId":1138479999,"osmType":"node","name":"Maggona","nameSi":null,"nameTa":null,"kind":"station"},"geometry":{"type":"Point","coordinates":[79.9813658,6.5048876]}},{"type":"Feature","id":"node/1138480165","properties":{"id":"node/1138480165","osmId":1138480165,"osmType":"node","name":"Kandegoda","nameSi":null,"nameTa":null,"kind":"station"},"geometry":{"type":"Point","coordinates":[80.0529169,6.2501907]}},{"type":"Feature","id":"node/1138480606","properties":{"id":"node/1138480606","osmId":1138480606,"osmType":"node","name":"Beruwala","nameSi":null,"nameTa":null,"kind":"station"},"geometry":{"type":"Point","coordinates":[79.983632,6.4769437]}},{"type":"Feature","id":"node/1138481003","properties":{"id":"node/1138481003","osmId":1138481003,"osmType":"node","name":"Payagala North","nameSi":null,"nameTa":null,"kind":"station"},"geometry":{"type":"Point","coordinates":[79.9750435,6.5315528]}},{"type":"Feature","id":"node/1138562255","properties":{"id":"node/1138562255","osmId":1138562255,"osmType":"node","name":"Akurala","nameSi":null,"nameTa":null,"kind":"station"},"geometry":{"type":"Point","coordinates":[80.0647968,6.1920745]}},{"type":"Feature","id":"node/1138577561","properties":{"id":"node/1138577561","osmId":1138577561,"osmType":"node","name":"Rathgama","nameSi":null,"nameTa":null,"kind":"station"},"geometry":{"type":"Point","coordinates":[80.1401109,6.09335]}},{"type":"Feature","id":"node/1139209103","properties":{"id":"node/1139209103","osmId":1139209103,"osmType":"node","name":"Telwatte","nameSi":null,"nameTa":null,"kind":"station"},"geometry":{"type":"Point","coordinates":[80.0888763,6.169066]}},{"type":"Feature","id":"node/1139248175","properties":{"id":"node/1139248175","osmId":1139248175,"osmType":"node","name":"Unawatuna","nameSi":null,"nameTa":null,"kind":"station"},"geometry":{"type":"Point","coordinates":[80.2492172,6.0220651]}},{"type":"Feature","id":"node/1139279942","properties":{"id":"node/1139279942","osmId":1139279942,"osmType":"node","name":"Bulugahagoda","nameSi":null,"nameTa":null,"kind":"station"},"geometry":{"type":"Point","coordinates":[79.9454477,7.0655794]}},{"type":"Feature","id":"node/1140291390","properties":{"id":"node/1140291390","osmId":1140291390,"osmType":"node","name":"Polgahawela Junction","nameSi":null,"nameTa":null,"kind":"station"},"geometry":{"type":"Point","coordinates":[80.3011647,7.3307027]}},{"type":"Feature","id":"node/1140291626","properties":{"id":"node/1140291626","osmId":1140291626,"osmType":"node","name":"Wilwatta","nameSi":null,"nameTa":null,"kind":"station"},"geometry":{"type":"Point","coordinates":[80.1354324,7.2563223]}},{"type":"Feature","id":"node/1140291685","properties":{"id":"node/1140291685","osmId":1140291685,"osmType":"node","name":"Mirigama","nameSi":null,"nameTa":null,"kind":"station"},"geometry":{"type":"Point","coordinates":[80.1265584,7.2425912]}},{"type":"Feature","id":"node/1140291692","properties":{"id":"node/1140291692","osmId":1140291692,"osmType":"node","name":"Alawwa","nameSi":null,"nameTa":null,"kind":"station"},"geometry":{"type":"Point","coordinates":[80.2386365,7.2934242]}},{"type":"Feature","id":"node/1143313572","properties":{"id":"node/1143313572","osmId":1143313572,"osmType":"node","name":"Hiriyala","nameSi":null,"nameTa":null,"kind":"station"},"geometry":{"type":"Point","coordinates":[80.3397981,7.6975804]}},{"type":"Feature","id":"node/1143313787","properties":{"id":"node/1143313787","osmId":1143313787,"osmType":"node","name":"Ambanpola","nameSi":null,"nameTa":null,"kind":"station"},"geometry":{"type":"Point","coordinates":[80.2461079,7.9188843]}},{"type":"Feature","id":"node/1143313912","properties":{"id":"node/1143313912","osmId":1143313912,"osmType":"node","name":"Muttetugala","nameSi":null,"nameTa":null,"kind":"station"},"geometry":{"type":"Point","coordinates":[80.3791226,7.4956732]}},{"type":"Feature","id":"node/1143313922","properties":{"id":"node/1143313922","osmId":1143313922,"osmType":"node","name":"Srawasthipura","nameSi":null,"nameTa":null,"kind":"station"},"geometry":{"type":"Point","coordinates":[80.3769783,8.2987964]}},{"type":"Feature","id":"node/1143314135","properties":{"id":"node/1143314135","osmId":1143314135,"osmType":"node","name":"Nailiya","nameSi":null,"nameTa":null,"kind":"station"},"geometry":{"type":"Point","coordinates":[80.3587223,7.449891]}},{"type":"Feature","id":"node/1143314167","properties":{"id":"node/1143314167","osmId":1143314167,"osmType":"node","name":"Maho Junction","nameSi":null,"nameTa":null,"kind":"station"},"geometry":{"type":"Point","coordinates":[80.2750922,7.8231561]}},{"type":"Feature","id":"node/1143314565","properties":{"id":"node/1143314565","osmId":1143314565,"osmType":"node","name":"Talawa","nameSi":null,"nameTa":null,"kind":"station"},"geometry":{"type":"Point","coordinates":[80.348274,8.231752]}},{"type":"Feature","id":"node/1143314681","properties":{"id":"node/1143314681","osmId":1143314681,"osmType":"node","name":"Thambuttegama","nameSi":null,"nameTa":null,"kind":"station"},"geometry":{"type":"Point","coordinates":[80.3038834,8.1543184]}},{"type":"Feature","id":"node/1143315265","properties":{"id":"node/1143315265","osmId":1143315265,"osmType":"node","name":"Pothuhera","nameSi":null,"nameTa":null,"kind":"station"},"geometry":{"type":"Point","coordinates":[80.3274809,7.4198455]}},{"type":"Feature","id":"node/1143315296","properties":{"id":"node/1143315296","osmId":1143315296,"osmType":"node","name":"Anuradhapura New Town","nameSi":null,"nameTa":null,"kind":"halt"},"geometry":{"type":"Point","coordinates":[80.3992715,8.321327]}},{"type":"Feature","id":"node/1143315442","properties":{"id":"node/1143315442","osmId":1143315442,"osmType":"node","name":"Thalawattegedara","nameSi":null,"nameTa":null,"kind":"station"},"geometry":{"type":"Point","coordinates":[80.3016136,7.3878803]}},{"type":"Feature","id":"node/1144853746","properties":{"id":"node/1144853746","osmId":1144853746,"osmType":"node","name":"Mihintale","nameSi":null,"nameTa":null,"kind":"station"},"geometry":{"type":"Point","coordinates":[80.5016942,8.3586214]}},{"type":"Feature","id":"node/1146140491","properties":{"id":"node/1146140491","osmId":1146140491,"osmType":"node","name":"Thandikulam","nameSi":null,"nameTa":null,"kind":"station"},"geometry":{"type":"Point","coordinates":[80.4850221,8.7782563]}},{"type":"Feature","id":"node/1146140887","properties":{"id":"node/1146140887","osmId":1146140887,"osmType":"node","name":"Parasangaswewa Railway Station","nameSi":null,"nameTa":null,"kind":"station"},"geometry":{"type":"Point","coordinates":[80.4315165,8.4453692]}},{"type":"Feature","id":"node/1146141350","properties":{"id":"node/1146141350","osmId":1146141350,"osmType":"node","name":"Medawachchiya","nameSi":null,"nameTa":null,"kind":"station"},"geometry":{"type":"Point","coordinates":[80.4581661,8.5545098]}},{"type":"Feature","id":"node/1146591688","properties":{"id":"node/1146591688","osmId":1146591688,"osmType":"node","name":"Murikandi-Kokavil","nameSi":null,"nameTa":null,"kind":"station"},"geometry":{"type":"Point","coordinates":[80.4175742,9.2063495]}},{"type":"Feature","id":"node/1146591924","properties":{"id":"node/1146591924","osmId":1146591924,"osmType":"node","name":"Ariviyal Nagar","nameSi":"අරිවියල් නගර්","nameTa":"அறிவியல் நகர்","kind":"station"},"geometry":{"type":"Point","coordinates":[80.4076622,9.3187473]}},{"type":"Feature","id":"node/1148494560","properties":{"id":"node/1148494560","osmId":1148494560,"osmType":"node","name":"Meesalai","nameSi":null,"nameTa":"மீசாலை","kind":"station"},"geometry":{"type":"Point","coordinates":[80.1889621,9.6735961]}},{"type":"Feature","id":"node/1148494958","properties":{"id":"node/1148494958","osmId":1148494958,"osmType":"node","name":"Elephant Pass","nameSi":null,"nameTa":"ஆனையிறவு","kind":"station"},"geometry":{"type":"Point","coordinates":[80.4058641,9.5023899]}},{"type":"Feature","id":"node/1148494963","properties":{"id":"node/1148494963","osmId":1148494963,"osmType":"node","name":"Chavakachcheri","nameSi":null,"nameTa":"சாவகச்சேரி","kind":"station"},"geometry":{"type":"Point","coordinates":[80.1584591,9.6571317]}},{"type":"Feature","id":"node/1148494997","properties":{"id":"node/1148494997","osmId":1148494997,"osmType":"node","name":"Kodaikamam","nameSi":null,"nameTa":null,"kind":"station"},"geometry":{"type":"Point","coordinates":[80.2193279,9.6813106]}},{"type":"Feature","id":"node/1148495492","properties":{"id":"node/1148495492","osmId":1148495492,"osmType":"node","name":"Eluthumadduval","nameSi":null,"nameTa":"எழுதுமட்டுவாழ்","kind":"station"},"geometry":{"type":"Point","coordinates":[80.2656514,9.661095]}},{"type":"Feature","id":"node/1148496040","properties":{"id":"node/1148496040","osmId":1148496040,"osmType":"node","name":"Punkankulam","nameSi":null,"nameTa":"புங்கங்குளம்","kind":"station"},"geometry":{"type":"Point","coordinates":[80.0382833,9.6593033]}},{"type":"Feature","id":"node/1168787880","properties":{"id":"node/1168787880","osmId":1168787880,"osmType":"node","name":"Pesalai","nameSi":null,"nameTa":null,"kind":"station"},"geometry":{"type":"Point","coordinates":[79.8227946,9.0823153]}},{"type":"Feature","id":"node/1168788044","properties":{"id":"node/1168788044","osmId":1168788044,"osmType":"node","name":"Talaimannar","nameSi":null,"nameTa":"தலைமன்னார்","kind":"station"},"geometry":{"type":"Point","coordinates":[79.7298828,9.1033259]}},{"type":"Feature","id":"node/1168900232","properties":{"id":"node/1168900232","osmId":1168900232,"osmType":"node","name":"Kekirawa","nameSi":null,"nameTa":null,"kind":"station"},"geometry":{"type":"Point","coordinates":[80.5814517,8.0584532]}},{"type":"Feature","id":"node/1169246067","properties":{"id":"node/1169246067","osmId":1169246067,"osmType":"node","name":"Habarana","nameSi":null,"nameTa":null,"kind":"station"},"geometry":{"type":"Point","coordinates":[80.7695893,8.0573101]}},{"type":"Feature","id":"node/1169246212","properties":{"id":"node/1169246212","osmId":1169246212,"osmType":"node","name":"Galoya Junction Railway Station","nameSi":null,"nameTa":null,"kind":"station"},"geometry":{"type":"Point","coordinates":[80.8658177,8.1377809]}},{"type":"Feature","id":"node/1171391608","properties":{"id":"node/1171391608","osmId":1171391608,"osmType":"node","name":"Agbopura","nameSi":null,"nameTa":null,"kind":"station"},"geometry":{"type":"Point","coordinates":[80.9796646,8.3267329]}},{"type":"Feature","id":"node/1171391647","properties":{"id":"node/1171391647","osmId":1171391647,"osmType":"node","name":"Kantale","nameSi":null,"nameTa":null,"kind":"station"},"geometry":{"type":"Point","coordinates":[81.0062054,8.3562353]}},{"type":"Feature","id":"node/1172969921","properties":{"id":"node/1172969921","osmId":1172969921,"osmType":"node","name":"Trincomalee","nameSi":null,"nameTa":"திருகோணமலை புகையிரத நிலையம்","kind":"station"},"geometry":{"type":"Point","coordinates":[81.2262012,8.5844138]}},{"type":"Feature","id":"node/1172970228","properties":{"id":"node/1172970228","osmId":1172970228,"osmType":"node","name":"China Bay","nameSi":null,"nameTa":null,"kind":"station"},"geometry":{"type":"Point","coordinates":[81.1904552,8.556397]}},{"type":"Feature","id":"node/1173326087","properties":{"id":"node/1173326087","osmId":1173326087,"osmType":"node","name":"Polonnaruwa","nameSi":null,"nameTa":null,"kind":"station"},"geometry":{"type":"Point","coordinates":[81.0333406,7.9301686]}},{"type":"Feature","id":"node/1173326127","properties":{"id":"node/1173326127","osmId":1173326127,"osmType":"node","name":"Minneriya","nameSi":null,"nameTa":null,"kind":"halt"},"geometry":{"type":"Point","coordinates":[80.8947665,8.0653841]}},{"type":"Feature","id":"node/1173676348","properties":{"id":"node/1173676348","osmId":1173676348,"osmType":"node","name":"Parakum Uyana","nameSi":null,"nameTa":null,"kind":"halt"},"geometry":{"type":"Point","coordinates":[81.0178049,7.9735976]}},{"type":"Feature","id":"node/1173695483","properties":{"id":"node/1173695483","osmId":1173695483,"osmType":"node","name":"Eravur","nameSi":null,"nameTa":null,"kind":"station"},"geometry":{"type":"Point","coordinates":[81.6044408,7.7855975]}},{"type":"Feature","id":"node/1173695522","properties":{"id":"node/1173695522","osmId":1173695522,"osmType":"node","name":"Valaichchenai","nameSi":null,"nameTa":null,"kind":"station"},"geometry":{"type":"Point","coordinates":[81.5318574,7.9102735]}},{"type":"Feature","id":"node/1175898701","properties":{"id":"node/1175898701","osmId":1175898701,"osmType":"node","name":"Wattegama","nameSi":null,"nameTa":null,"kind":"station"},"geometry":{"type":"Point","coordinates":[80.6825578,7.350651]}},{"type":"Feature","id":"node/1175898763","properties":{"id":"node/1175898763","osmId":1175898763,"osmType":"node","name":"Ihalakotte","nameSi":null,"nameTa":null,"kind":"station"},"geometry":{"type":"Point","coordinates":[80.469259,7.2887]}},{"type":"Feature","id":"node/1175900259","properties":{"id":"node/1175900259","osmId":1175900259,"osmType":"node","name":"Ukuwela","nameSi":null,"nameTa":null,"kind":"station"},"geometry":{"type":"Point","coordinates":[80.6342993,7.4202246]}},{"type":"Feature","id":"node/1175901018","properties":{"id":"node/1175901018","osmId":1175901018,"osmType":"node","name":"Balana","nameSi":null,"nameTa":null,"kind":"station"},"geometry":{"type":"Point","coordinates":[80.489353,7.2667493]}},{"type":"Feature","id":"node/1175901078","properties":{"id":"node/1175901078","osmId":1175901078,"osmType":"node","name":"Matale","nameSi":null,"nameTa":null,"kind":"station"},"geometry":{"type":"Point","coordinates":[80.6248632,7.467966]}},{"type":"Feature","id":"node/1175901262","properties":{"id":"node/1175901262","osmId":1175901262,"osmType":"node","name":"Pannaliya","nameSi":null,"nameTa":null,"kind":"station"},"geometry":{"type":"Point","coordinates":[80.3253063,7.3286016]}},{"type":"Feature","id":"node/1175902881","properties":{"id":"node/1175902881","osmId":1175902881,"osmType":"node","name":"Kadugannawa","nameSi":null,"nameTa":null,"kind":"station"},"geometry":{"type":"Point","coordinates":[80.5207503,7.2577827]}},{"type":"Feature","id":"node/1175904246","properties":{"id":"node/1175904246","osmId":1175904246,"osmType":"node","name":"Katugastota","nameSi":null,"nameTa":null,"kind":"station"},"geometry":{"type":"Point","coordinates":[80.6330084,7.3304562]}},{"type":"Feature","id":"node/1176188739","properties":{"id":"node/1176188739","osmId":1176188739,"osmType":"node","name":"Koshinna","nameSi":null,"nameTa":null,"kind":"station"},"geometry":{"type":"Point","coordinates":[80.5950443,7.2335858]}},{"type":"Feature","id":"node/1177231213","properties":{"id":"node/1177231213","osmId":1177231213,"osmType":"node","name":"Ulapane","nameSi":null,"nameTa":null,"kind":"station"},"geometry":{"type":"Point","coordinates":[80.5597211,7.1082827]}},{"type":"Feature","id":"node/1177231929","properties":{"id":"node/1177231929","osmId":1177231929,"osmType":"node","name":"Tembligala","nameSi":null,"nameTa":null,"kind":"halt"},"geometry":{"type":"Point","coordinates":[80.559258,7.1331823]}},{"type":"Feature","id":"node/1177512170","properties":{"id":"node/1177512170","osmId":1177512170,"osmType":"node","name":"Galboda","nameSi":null,"nameTa":null,"kind":"station"},"geometry":{"type":"Point","coordinates":[80.5300581,6.9860278]}},{"type":"Feature","id":"node/1177512252","properties":{"id":"node/1177512252","osmId":1177512252,"osmType":"node","name":"Rozelle","nameSi":null,"nameTa":null,"kind":"station"},"geometry":{"type":"Point","coordinates":[80.5587202,6.9348701]}},{"type":"Feature","id":"node/1177512876","properties":{"id":"node/1177512876","osmId":1177512876,"osmType":"node","name":"Ihala Watawala","nameSi":null,"nameTa":null,"kind":"station"},"geometry":{"type":"Point","coordinates":[80.542167,6.9481148]}},{"type":"Feature","id":"node/1177513749","properties":{"id":"node/1177513749","osmId":1177513749,"osmType":"node","name":"Inguru Oya","nameSi":null,"nameTa":null,"kind":"station"},"geometry":{"type":"Point","coordinates":[80.5457206,7.018222]}},{"type":"Feature","id":"node/1178458796","properties":{"id":"node/1178458796","osmId":1178458796,"osmType":"node","name":"Ohiya","nameSi":null,"nameTa":null,"kind":"station"},"geometry":{"type":"Point","coordinates":[80.8430198,6.8177121]}},{"type":"Feature","id":"node/1178458977","properties":{"id":"node/1178458977","osmId":1178458977,"osmType":"node","name":"Idalgashinna","nameSi":null,"nameTa":null,"kind":"station"},"geometry":{"type":"Point","coordinates":[80.8968826,6.7793989]}},{"type":"Feature","id":"node/1179884414","properties":{"id":"node/1179884414","osmId":1179884414,"osmType":"node","name":"Hali-Ela","nameSi":null,"nameTa":null,"kind":"station"},"geometry":{"type":"Point","coordinates":[81.0334492,6.9539582]}},{"type":"Feature","id":"node/1179884454","properties":{"id":"node/1179884454","osmId":1179884454,"osmType":"node","name":"Demodara","nameSi":null,"nameTa":null,"kind":"station"},"geometry":{"type":"Point","coordinates":[81.0627711,6.9029362]}},{"type":"Feature","id":"node/1241539413","properties":{"id":"node/1241539413","osmId":1241539413,"osmType":"node","name":"Laksha Uyana","nameSi":null,"nameTa":null,"kind":"halt"},"geometry":{"type":"Point","coordinates":[80.9968624,7.9882828]}},{"type":"Feature","id":"node/1473127660","properties":{"id":"node/1473127660","osmId":1473127660,"osmType":"node","name":null,"nameSi":null,"nameTa":null,"kind":"station"},"geometry":{"type":"Point","coordinates":[79.8590908,7.3615637]}},{"type":"Feature","id":"node/1685297495","properties":{"id":"node/1685297495","osmId":1685297495,"osmType":"node","name":"Kumbalgama","nameSi":null,"nameTa":null,"kind":"station"},"geometry":{"type":"Point","coordinates":[80.4096817,5.9636625]}},{"type":"Feature","id":"node/1685576493","properties":{"id":"node/1685576493","osmId":1685576493,"osmType":"node","name":"Midigama","nameSi":null,"nameTa":null,"kind":"station"},"geometry":{"type":"Point","coordinates":[80.3914881,5.9651656]}},{"type":"Feature","id":"node/1728255091","properties":{"id":"node/1728255091","osmId":1728255091,"osmType":"node","name":"Thampalakamam","nameSi":null,"nameTa":null,"kind":"station"},"geometry":{"type":"Point","coordinates":[81.0953498,8.498339]}},{"type":"Feature","id":"node/1728263431","properties":{"id":"node/1728263431","osmId":1728263431,"osmType":"node","name":"Ganthalawa","nameSi":null,"nameTa":null,"kind":"station"},"geometry":{"type":"Point","coordinates":[81.036773,8.4165855]}},{"type":"Feature","id":"node/1728263442","properties":{"id":"node/1728263442","osmId":1728263442,"osmType":"node","name":"Mollipothana","nameSi":null,"nameTa":null,"kind":"station"},"geometry":{"type":"Point","coordinates":[81.0618736,8.4450308]}},{"type":"Feature","id":"node/1728286789","properties":{"id":"node/1728286789","osmId":1728286789,"osmType":"node","name":"Ganewatte","nameSi":null,"nameTa":null,"kind":"station"},"geometry":{"type":"Point","coordinates":[80.3486525,7.6550184]}},{"type":"Feature","id":"node/1728286790","properties":{"id":"node/1728286790","osmId":1728286790,"osmType":"node","name":"Wellawa","nameSi":null,"nameTa":null,"kind":"station"},"geometry":{"type":"Point","coordinates":[80.3661793,7.5596275]}},{"type":"Feature","id":"node/1728286792","properties":{"id":"node/1728286792","osmId":1728286792,"osmType":"node","name":"Galgamuwa","nameSi":null,"nameTa":null,"kind":"station"},"geometry":{"type":"Point","coordinates":[80.2715285,8.0021635]}},{"type":"Feature","id":"node/1728294289","properties":{"id":"node/1728294289","osmId":1728294289,"osmType":"node","name":"Nagollagama","nameSi":null,"nameTa":null,"kind":"station"},"geometry":{"type":"Point","coordinates":[80.314565,7.7538118]}},{"type":"Feature","id":"node/1856813120","properties":{"id":"node/1856813120","osmId":1856813120,"osmType":"node","name":"Girambe","nameSi":null,"nameTa":null,"kind":"station"},"geometry":{"type":"Point","coordinates":[80.3025304,7.3646496]}},{"type":"Feature","id":"node/1862832376","properties":{"id":"node/1862832376","osmId":1862832376,"osmType":"node","name":"Pinnawala","nameSi":null,"nameTa":null,"kind":"station"},"geometry":{"type":"Point","coordinates":[80.1173053,6.8693009]}},{"type":"Feature","id":"node/1880451289","properties":{"id":"node/1880451289","osmId":1880451289,"osmType":"node","name":"Kalkudah","nameSi":null,"nameTa":null,"kind":"halt"},"geometry":{"type":"Point","coordinates":[81.5538496,7.8966092]}},{"type":"Feature","id":"node/2285196541","properties":{"id":"node/2285196541","osmId":2285196541,"osmType":"node","name":"Jayanthipura","nameSi":null,"nameTa":null,"kind":"halt"},"geometry":{"type":"Point","coordinates":[80.9835498,8.0049706]}},{"type":"Feature","id":"node/2609096345","properties":{"id":"node/2609096345","osmId":2609096345,"osmType":"node","name":"Mawilmada","nameSi":null,"nameTa":null,"kind":"halt"},"geometry":{"type":"Point","coordinates":[80.6310223,7.3191816]}},{"type":"Feature","id":"node/2648621439","properties":{"id":"node/2648621439","osmId":2648621439,"osmType":"node","name":"Kelaniya","nameSi":null,"nameTa":null,"kind":"station"},"geometry":{"type":"Point","coordinates":[79.8944725,6.9610592]}},{"type":"Feature","id":"node/2671478496","properties":{"id":"node/2671478496","osmId":2671478496,"osmType":"node","name":"Killinochchi","nameSi":null,"nameTa":null,"kind":"station"},"geometry":{"type":"Point","coordinates":[80.4059976,9.3857084]}},{"type":"Feature","id":"node/2671478503","properties":{"id":"node/2671478503","osmId":2671478503,"osmType":"node","name":"Madhu Road","nameSi":null,"nameTa":null,"kind":"station"},"geometry":{"type":"Point","coordinates":[80.1501633,8.7738352]}},{"type":"Feature","id":"node/2681885360","properties":{"id":"node/2681885360","osmId":2681885360,"osmType":"node","name":"Egoda Uyana","nameSi":null,"nameTa":null,"kind":"station"},"geometry":{"type":"Point","coordinates":[79.8916572,6.7429318]}},{"type":"Feature","id":"node/2681885364","properties":{"id":"node/2681885364","osmId":2681885364,"osmType":"node","name":"Moratuwa","nameSi":null,"nameTa":null,"kind":"station"},"geometry":{"type":"Point","coordinates":[79.8817806,6.7743504]}},{"type":"Feature","id":"node/2831586566","properties":{"id":"node/2831586566","osmId":2831586566,"osmType":"node","name":"Anuradhapura School","nameSi":null,"nameTa":null,"kind":"halt"},"geometry":{"type":"Point","coordinates":[80.4070693,8.3303177]}},{"type":"Feature","id":"node/2831586568","properties":{"id":"node/2831586568","osmId":2831586568,"osmType":"node","name":"Asokapura","nameSi":null,"nameTa":null,"kind":"halt"},"geometry":{"type":"Point","coordinates":[80.478358,8.3802238]}},{"type":"Feature","id":"node/2831589091","properties":{"id":"node/2831589091","osmId":2831589091,"osmType":"node","name":"Samagipura","nameSi":null,"nameTa":null,"kind":"halt"},"geometry":{"type":"Point","coordinates":[80.4414589,8.3577798]}},{"type":"Feature","id":"node/2831610508","properties":{"id":"node/2831610508","osmId":2831610508,"osmType":"node","name":"Sevanapitiya","nameSi":null,"nameTa":null,"kind":"halt"},"geometry":{"type":"Point","coordinates":[81.1843066,7.9215565]}},{"type":"Feature","id":"node/2833605614","properties":{"id":"node/2833605614","osmId":2833605614,"osmType":"node","name":"Saliyapura","nameSi":null,"nameTa":null,"kind":"halt"},"geometry":{"type":"Point","coordinates":[80.4223003,8.3899157]}},{"type":"Feature","id":"node/2833605615","properties":{"id":"node/2833605615","osmId":2833605615,"osmType":"node","name":"Siyabalagawewa","nameSi":null,"nameTa":null,"kind":"halt"},"geometry":{"type":"Point","coordinates":[80.4331804,8.4626639]}},{"type":"Feature","id":"node/2837565658","properties":{"id":"node/2837565658","osmId":2837565658,"osmType":"node","name":"Senarathgama","nameSi":null,"nameTa":null,"kind":"station"},"geometry":{"type":"Point","coordinates":[80.2777081,8.0858801]}},{"type":"Feature","id":"node/2913824001","properties":{"id":"node/2913824001","osmId":2913824001,"osmType":"node","name":"Randles Hill","nameSi":null,"nameTa":null,"kind":"halt"},"geometry":{"type":"Point","coordinates":[80.6180787,7.2786883]}},{"type":"Feature","id":"node/2918209198","properties":{"id":"node/2918209198","osmId":2918209198,"osmType":"node","name":"Gelioya Train Station","nameSi":null,"nameTa":null,"kind":"station"},"geometry":{"type":"Point","coordinates":[80.5986203,7.2139104]}},{"type":"Feature","id":"node/3091348048","properties":{"id":"node/3091348048","osmId":3091348048,"osmType":"node","name":"Andadola","nameSi":null,"nameTa":null,"kind":"station"},"geometry":{"type":"Point","coordinates":[80.0469401,6.2661943]}},{"type":"Feature","id":"node/3091350958","properties":{"id":"node/3091350958","osmId":3091350958,"osmType":"node","name":"Angampitya","nameSi":null,"nameTa":null,"kind":"station"},"geometry":{"type":"Point","coordinates":[80.1094043,6.8529835]}},{"type":"Feature","id":"node/3091402165","properties":{"id":"node/3091402165","osmId":3091402165,"osmType":"node","name":"Elwala","nameSi":null,"nameTa":null,"kind":"station"},"geometry":{"type":"Point","coordinates":[80.6321344,7.4416745]}},{"type":"Feature","id":"node/3091412586","properties":{"id":"node/3091412586","osmId":3091412586,"osmType":"node","name":"Iratperiya Kulam","nameSi":null,"nameTa":null,"kind":"station"},"geometry":{"type":"Point","coordinates":[80.4811639,8.7095586]}},{"type":"Feature","id":"node/3092123008","properties":{"id":"node/3092123008","osmId":3092123008,"osmType":"node","name":"Gammana","nameSi":null,"nameTa":null,"kind":"station"},"geometry":{"type":"Point","coordinates":[80.1231952,6.8771479]}},{"type":"Feature","id":"node/3092143617","properties":{"id":"node/3092143617","osmId":3092143617,"osmType":"node","name":"Hatares Kotuwa","nameSi":null,"nameTa":null,"kind":"station"},"geometry":{"type":"Point","coordinates":[80.8391243,8.1451745]}},{"type":"Feature","id":"node/3092187158","properties":{"id":"node/3092187158","osmId":3092187158,"osmType":"node","name":"Hettimulla","nameSi":null,"nameTa":null,"kind":"station"},"geometry":{"type":"Point","coordinates":[79.9907622,6.4576854]}},{"type":"Feature","id":"node/3092194402","properties":{"id":"node/3092194402","osmId":3092194402,"osmType":"node","name":"Horiwiala","nameSi":null,"nameTa":null,"kind":"station"},"geometry":{"type":"Point","coordinates":[80.6785139,8.0677899]}},{"type":"Feature","id":"node/3092204056","properties":{"id":"node/3092204056","osmId":3092204056,"osmType":"node","name":"Hightenford","nameSi":null,"nameTa":null,"kind":"station"},"geometry":{"type":"Point","coordinates":[80.530848,7.0330481]}},{"type":"Feature","id":"node/3092276619","properties":{"id":"node/3092276619","osmId":3092276619,"osmType":"node","name":"Kalawewa","nameSi":null,"nameTa":null,"kind":"station"},"geometry":{"type":"Point","coordinates":[80.5311746,8.0237261]}},{"type":"Feature","id":"node/3092287638","properties":{"id":"node/3092287638","osmId":3092287638,"osmType":"node","name":"Karadipuwal","nameSi":null,"nameTa":null,"kind":"station"},"geometry":{"type":"Point","coordinates":[79.8639129,8.1353837]}},{"type":"Feature","id":"node/3092295473","properties":{"id":"node/3092295473","osmId":3092295473,"osmType":"node","name":"Keenawala","nameSi":null,"nameTa":null,"kind":"station"},"geometry":{"type":"Point","coordinates":[80.0743794,7.1854854]}},{"type":"Feature","id":"node/3092346627","properties":{"id":"node/3092346627","osmId":3092346627,"osmType":"node","name":"Koralawalla","nameSi":null,"nameTa":null,"kind":"station"},"geometry":{"type":"Point","coordinates":[79.8859478,6.7584506]}},{"type":"Feature","id":"node/3092365290","properties":{"id":"node/3092365290","osmId":3092365290,"osmType":"node","name":"Liyanwala","nameSi":null,"nameTa":null,"kind":"station"},"geometry":{"type":"Point","coordinates":[80.0797169,6.8383604]}},{"type":"Feature","id":"node/3092375152","properties":{"id":"node/3092375152","osmId":3092375152,"osmType":"node","name":"Madurankuli","nameSi":"මදුරන්කුලිය","nameTa":"மதுரங்குளி","kind":"station"},"geometry":{"type":"Point","coordinates":[79.8204737,7.9020671]}},{"type":"Feature","id":"node/3092418626","properties":{"id":"node/3092418626","osmId":3092418626,"osmType":"node","name":"Madegama","nameSi":null,"nameTa":null,"kind":"station"},"geometry":{"type":"Point","coordinates":[80.4351423,8.4750004]}},{"type":"Feature","id":"node/3092419086","properties":{"id":"node/3092419086","osmId":3092419086,"osmType":"node","name":"Mankulam","nameSi":null,"nameTa":"மாங்குளம்","kind":"station"},"geometry":{"type":"Point","coordinates":[80.4445722,9.12999]}},{"type":"Feature","id":"node/3092545086","properties":{"id":"node/3092545086","osmId":3092545086,"osmType":"node","name":"Mirissa","nameSi":null,"nameTa":null,"kind":"station"},"geometry":{"type":"Point","coordinates":[80.4734963,5.9566902]}},{"type":"Feature","id":"node/3092551270","properties":{"id":"node/3092551270","osmId":3092551270,"osmType":"node","name":"Moragollagama","nameSi":null,"nameTa":null,"kind":"station"},"geometry":{"type":"Point","coordinates":[80.4221695,7.905764]}},{"type":"Feature","id":"node/3092570865","properties":{"id":"node/3092570865","osmId":3092570865,"osmType":"node","name":"Morakele","nameSi":null,"nameTa":null,"kind":"station"},"geometry":{"type":"Point","coordinates":[80.123948,6.8832238]}},{"type":"Feature","id":"node/3092584733","properties":{"id":"node/3092584733","osmId":3092584733,"osmType":"node","name":"Nanu Oya","nameSi":null,"nameTa":null,"kind":"station"},"geometry":{"type":"Point","coordinates":[80.7436484,6.9420663]}},{"type":"Feature","id":"node/3092596010","properties":{"id":"node/3092596010","osmId":3092596010,"osmType":"node","name":"Negama","nameSi":null,"nameTa":null,"kind":"station"},"geometry":{"type":"Point","coordinates":[80.4835241,7.9799089]}},{"type":"Feature","id":"node/3092600710","properties":{"id":"node/3092600710","osmId":3092600710,"osmType":"node","name":"Neriyakulam","nameSi":null,"nameTa":null,"kind":"station"},"geometry":{"type":"Point","coordinates":[80.3568548,8.6165845]}},{"type":"Feature","id":"node/3092611353","properties":{"id":"node/3092611353","osmId":3092611353,"osmType":"node","name":"Pallewala","nameSi":null,"nameTa":null,"kind":"station"},"geometry":{"type":"Point","coordinates":[80.0899349,7.1983011]}},{"type":"Feature","id":"node/3092624215","properties":{"id":"node/3092624215","osmId":3092624215,"osmType":"node","name":"Palugaswewa","nameSi":null,"nameTa":null,"kind":"station"},"geometry":{"type":"Point","coordinates":[80.7132576,8.0590196]}},{"type":"Feature","id":"node/3092671587","properties":{"id":"node/3092671587","osmId":3092671587,"osmType":"node","name":"Pangiriwatta","nameSi":null,"nameTa":null,"kind":"station"},"geometry":{"type":"Point","coordinates":[79.9022473,6.864956]}},{"type":"Feature","id":"node/3092675479","properties":{"id":"node/3092675479","osmId":3092675479,"osmType":"node","name":"Paranthan","nameSi":null,"nameTa":"பரந்தன்","kind":"station"},"geometry":{"type":"Point","coordinates":[80.407105,9.4401189]}},{"type":"Feature","id":"node/3092677804","properties":{"id":"node/3092677804","osmId":3092677804,"osmType":"node","name":"Pathegamgoda","nameSi":null,"nameTa":null,"kind":"station"},"geometry":{"type":"Point","coordinates":[80.0415561,6.297115]}},{"type":"Feature","id":"node/3092751586","properties":{"id":"node/3092751586","osmId":3092751586,"osmType":"node","name":"Patanpaha","nameSi":null,"nameTa":null,"kind":"station"},"geometry":{"type":"Point","coordinates":[80.6616741,7.3840931]}},{"type":"Feature","id":"node/3092757203","properties":{"id":"node/3092757203","osmId":3092757203,"osmType":"node","name":"Penrose","nameSi":null,"nameTa":null,"kind":"station"},"geometry":{"type":"Point","coordinates":[80.5394705,6.9943143]}},{"type":"Feature","id":"node/3092762743","properties":{"id":"node/3092762743","osmId":3092762743,"osmType":"node","name":"Peradeniya Jct.","nameSi":null,"nameTa":null,"kind":"station"},"geometry":{"type":"Point","coordinates":[80.5901975,7.2573002]}},{"type":"Feature","id":"node/3092775163","properties":{"id":"node/3092775163","osmId":3092775163,"osmType":"node","name":"Periyanagavillu","nameSi":null,"nameTa":null,"kind":"station"},"geometry":{"type":"Point","coordinates":[79.8666104,8.2283858]}},{"type":"Feature","id":"node/3092793918","properties":{"id":"node/3092793918","osmId":3092793918,"osmType":"node","name":"Piyagama","nameSi":null,"nameTa":null,"kind":"station"},"geometry":{"type":"Point","coordinates":[80.0335213,6.3290357]}},{"type":"Feature","id":"node/3092797789","properties":{"id":"node/3092797789","osmId":3092797789,"osmType":"node","name":"Polwathumodara","nameSi":null,"nameTa":null,"kind":"station"},"geometry":{"type":"Point","coordinates":[80.4572358,5.9645346]}},{"type":"Feature","id":"node/3092822215","properties":{"id":"node/3092822215","osmId":3092822215,"osmType":"node","name":"Punewa","nameSi":null,"nameTa":null,"kind":"station"},"geometry":{"type":"Point","coordinates":[80.462864,8.6130857]}},{"type":"Feature","id":"node/3092851447","properties":{"id":"node/3092851447","osmId":3092851447,"osmType":"node","name":"Puliyankulam","nameSi":null,"nameTa":"புளியங்குளம்","kind":"station"},"geometry":{"type":"Point","coordinates":[80.5230039,8.9609281]}},{"type":"Feature","id":"node/3092857095","properties":{"id":"node/3092857095","osmId":3092857095,"osmType":"node","name":"Radella","nameSi":null,"nameTa":null,"kind":"station"},"geometry":{"type":"Point","coordinates":[80.716728,6.9448004]}},{"type":"Feature","id":"node/3092858649","properties":{"id":"node/3092858649","osmId":3092858649,"osmType":"node","name":"Rambukkana","nameSi":null,"nameTa":null,"kind":"station"},"geometry":{"type":"Point","coordinates":[80.3903192,7.3210536]}},{"type":"Feature","id":"node/3092896687","properties":{"id":"node/3092896687","osmId":3092896687,"osmType":"node","name":"Randenigama","nameSi":null,"nameTa":null,"kind":"station"},"geometry":{"type":"Point","coordinates":[80.2593352,7.8485354]}},{"type":"Feature","id":"node/3092912530","properties":{"id":"node/3092912530","osmId":3092912530,"osmType":"node","name":"Welikanda","nameSi":null,"nameTa":null,"kind":"station"},"geometry":{"type":"Point","coordinates":[81.2503557,7.9471138]}},{"type":"Feature","id":"node/3092966618","properties":{"id":"node/3092966618","osmId":3092966618,"osmType":"node","name":"Sawarana","nameSi":null,"nameTa":null,"kind":"station"},"geometry":{"type":"Point","coordinates":[79.805341,7.5614974]}},{"type":"Feature","id":"node/3093068369","properties":{"id":"node/3093068369","osmId":3093068369,"osmType":"node","name":"Timbiriyagedara","nameSi":null,"nameTa":null,"kind":"station"},"geometry":{"type":"Point","coordinates":[80.2976683,7.7812961]}},{"type":"Feature","id":"node/3093076279","properties":{"id":"node/3093076279","osmId":3093076279,"osmType":"node","name":"Tismalpola","nameSi":null,"nameTa":null,"kind":"station"},"geometry":{"type":"Point","coordinates":[80.3431512,7.3217113]}},{"type":"Feature","id":"node/3093567807","properties":{"id":"node/3093567807","osmId":3093567807,"osmType":"node","name":"Viralmurippuwa","nameSi":null,"nameTa":null,"kind":"station"},"geometry":{"type":"Point","coordinates":[80.446541,8.5308063]}},{"type":"Feature","id":"node/3093577995","properties":{"id":"node/3093577995","osmId":3093577995,"osmType":"node","name":"Walakumbura","nameSi":null,"nameTa":null,"kind":"station"},"geometry":{"type":"Point","coordinates":[80.2690495,7.3138576]}},{"type":"Feature","id":"node/3093588829","properties":{"id":"node/3093588829","osmId":3093588829,"osmType":"node","name":"Yatagama","nameSi":null,"nameTa":null,"kind":"station"},"geometry":{"type":"Point","coordinates":[80.3641048,7.3186864]}},{"type":"Feature","id":"node/3313919778","properties":{"id":"node/3313919778","osmId":3313919778,"osmType":"node","name":"Pallai","nameSi":null,"nameTa":"பளை","kind":"station"},"geometry":{"type":"Point","coordinates":[80.3298414,9.6078751]}},{"type":"Feature","id":"node/3315021374","properties":{"id":"node/3315021374","osmId":3315021374,"osmType":"node","name":"Konwewa","nameSi":null,"nameTa":null,"kind":"station"},"geometry":{"type":"Point","coordinates":[80.3491121,7.8507932]}},{"type":"Feature","id":"node/3328439842","properties":{"id":"node/3328439842","osmId":3328439842,"osmType":"node","name":"Polgahanga","nameSi":null,"nameTa":null,"kind":"halt"},"geometry":{"type":"Point","coordinates":[80.5983098,7.1965592]}},{"type":"Feature","id":"node/3540412142","properties":{"id":"node/3540412142","osmId":3540412142,"osmType":"node","name":"Navatkuli","nameSi":null,"nameTa":"நாவற்குழி","kind":"station"},"geometry":{"type":"Point","coordinates":[80.0814724,9.6616561]}},{"type":"Feature","id":"node/3634859066","properties":{"id":"node/3634859066","osmId":3634859066,"osmType":"node","name":"Beliatte","nameSi":null,"nameTa":null,"kind":"station"},"geometry":{"type":"Point","coordinates":[80.7372524,6.0421661]}},{"type":"Feature","id":"node/3665942841","properties":{"id":"node/3665942841","osmId":3665942841,"osmType":"node","name":"Chettikulam Station","nameSi":null,"nameTa":null,"kind":"station"},"geometry":{"type":"Point","coordinates":[80.3059036,8.6689844]}},{"type":"Feature","id":"node/3770151110","properties":{"id":"node/3770151110","osmId":3770151110,"osmType":"node","name":"Warakawa","nameSi":null,"nameTa":null,"kind":"halt"},"geometry":{"type":"Point","coordinates":[80.5406849,7.0740747]}},{"type":"Feature","id":"node/3770166377","properties":{"id":"node/3770166377","osmId":3770166377,"osmType":"node","name":"Pallegama","nameSi":null,"nameTa":null,"kind":"halt"},"geometry":{"type":"Point","coordinates":[80.5526498,7.0837437]}},{"type":"Feature","id":"node/3856394476","properties":{"id":"node/3856394476","osmId":3856394476,"osmType":"node","name":"Pattam Paha","nameSi":null,"nameTa":null,"kind":"halt"},"geometry":{"type":"Point","coordinates":[80.6621247,7.3807323]}},{"type":"Feature","id":"node/3926651383","properties":{"id":"node/3926651383","osmId":3926651383,"osmType":"node","name":"Ambalangoda","nameSi":null,"nameTa":null,"kind":"station"},"geometry":{"type":"Point","coordinates":[80.0549325,6.2353754]}},{"type":"Feature","id":"node/3958951994","properties":{"id":"node/3958951994","osmId":3958951994,"osmType":"node","name":"Sangathanai Railway Station","nameSi":null,"nameTa":"சங்கத்தானை தொடருந்து நிலையம்","kind":"station"},"geometry":{"type":"Point","coordinates":[80.1723805,9.664046]}},{"type":"Feature","id":"node/3990565228","properties":{"id":"node/3990565228","osmId":3990565228,"osmType":"node","name":"Thachanthoppu","nameSi":null,"nameTa":"தச்சன்தோப்பு","kind":"station"},"geometry":{"type":"Point","coordinates":[80.1108181,9.6571772]}},{"type":"Feature","id":"node/4034331784","properties":{"id":"node/4034331784","osmId":4034331784,"osmType":"node","name":"Rajawatta","nameSi":null,"nameTa":null,"kind":"halt"},"geometry":{"type":"Point","coordinates":[80.6028685,7.2676046]}},{"type":"Feature","id":"node/4038338014","properties":{"id":"node/4038338014","osmId":4038338014,"osmType":"node","name":"Kattuwa","nameSi":null,"nameTa":null,"kind":"station"},"geometry":{"type":"Point","coordinates":[79.8475622,7.2399357]}},{"type":"Feature","id":"node/4038370993","properties":{"id":"node/4038370993","osmId":4038370993,"osmType":"node","name":"Noor Nagar","nameSi":null,"nameTa":null,"kind":"station"},"geometry":{"type":"Point","coordinates":[79.8398157,8.035971]}},{"type":"Feature","id":"node/4075038185","properties":{"id":"node/4075038185","osmId":4075038185,"osmType":"node","name":"Aselapura","nameSi":null,"nameTa":null,"kind":"halt"},"geometry":{"type":"Point","coordinates":[81.2990714,7.9630997]}},{"type":"Feature","id":"node/4075039577","properties":{"id":"node/4075039577","osmId":4075039577,"osmType":"node","name":"Rideethenna","nameSi":null,"nameTa":null,"kind":"halt"},"geometry":{"type":"Point","coordinates":[81.3393687,7.9638576]}},{"type":"Feature","id":"node/4075186466","properties":{"id":"node/4075186466","osmId":4075186466,"osmType":"node","name":"Gallella","nameSi":null,"nameTa":null,"kind":"halt"},"geometry":{"type":"Point","coordinates":[81.0631516,7.9053038]}},{"type":"Feature","id":"node/4076853085","properties":{"id":"node/4076853085","osmId":4076853085,"osmType":"node","name":"Hathamuna","nameSi":null,"nameTa":null,"kind":"halt"},"geometry":{"type":"Point","coordinates":[80.9692934,8.0190988]}},{"type":"Feature","id":"node/4109833590","properties":{"id":"node/4109833590","osmId":4109833590,"osmType":"node","name":"Mirusuvil","nameSi":null,"nameTa":"மிருசுவில்","kind":"station"},"geometry":{"type":"Point","coordinates":[80.2432739,9.6741668]}},{"type":"Feature","id":"node/4187025379","properties":{"id":"node/4187025379","osmId":4187025379,"osmType":"node","name":"Katugoda","nameSi":null,"nameTa":null,"kind":"station"},"geometry":{"type":"Point","coordinates":[80.2401656,6.0327454]}},{"type":"Feature","id":"node/4197716349","properties":{"id":"node/4197716349","osmId":4197716349,"osmType":"node","name":"Wadduwa","nameSi":null,"nameTa":null,"kind":"station"},"geometry":{"type":"Point","coordinates":[79.9286921,6.6632626]}},{"type":"Feature","id":"node/4197716350","properties":{"id":"node/4197716350","osmId":4197716350,"osmType":"node","name":"Train Halt No. 1","nameSi":null,"nameTa":null,"kind":"station"},"geometry":{"type":"Point","coordinates":[79.9403371,6.6325467]}},{"type":"Feature","id":"node/4441664134","properties":{"id":"node/4441664134","osmId":4441664134,"osmType":"node","name":"Wallahagoda","nameSi":null,"nameTa":null,"kind":"halt"},"geometry":{"type":"Point","coordinates":[80.5616084,7.1454531]}},{"type":"Feature","id":"node/4441664135","properties":{"id":"node/4441664135","osmId":4441664135,"osmType":"node","name":"Kahatapitiya","nameSi":null,"nameTa":null,"kind":"halt"},"geometry":{"type":"Point","coordinates":[80.5727616,7.1678057]}},{"type":"Feature","id":"node/4441664137","properties":{"id":"node/4441664137","osmId":4441664137,"osmType":"node","name":"Bothalapitiya","nameSi":null,"nameTa":null,"kind":"halt"},"geometry":{"type":"Point","coordinates":[80.5794478,7.1747194]}},{"type":"Feature","id":"node/4441961370","properties":{"id":"node/4441961370","osmId":4441961370,"osmType":"node","name":"Warakapitiya","nameSi":null,"nameTa":null,"kind":"halt"},"geometry":{"type":"Point","coordinates":[80.5614805,7.1175228]}},{"type":"Feature","id":"node/4613703731","properties":{"id":"node/4613703731","osmId":4613703731,"osmType":"node","name":"Erukkalampiddy-Nagavillu Railway station","nameSi":null,"nameTa":null,"kind":"station"},"geometry":{"type":"Point","coordinates":[79.8301236,7.9615801]}},{"type":"Feature","id":"node/4713806031","properties":{"id":"node/4713806031","osmId":4713806031,"osmType":"node","name":"Asgiriya","nameSi":null,"nameTa":null,"kind":"station"},"geometry":{"type":"Point","coordinates":[80.6352522,7.2978431]}},{"type":"Feature","id":"node/4713839156","properties":{"id":"node/4713839156","osmId":4713839156,"osmType":"node","name":"Palle Talawinna","nameSi":null,"nameTa":null,"kind":"station"},"geometry":{"type":"Point","coordinates":[80.6415662,7.3379695]}},{"type":"Feature","id":"node/4713846086","properties":{"id":"node/4713846086","osmId":4713846086,"osmType":"node","name":"Uda Talawinna","nameSi":null,"nameTa":null,"kind":"station"},"geometry":{"type":"Point","coordinates":[80.6513081,7.3395582]}},{"type":"Feature","id":"node/4713850107","properties":{"id":"node/4713850107","osmId":4713850107,"osmType":"node","name":"Meegammana","nameSi":null,"nameTa":null,"kind":"station"},"geometry":{"type":"Point","coordinates":[80.6670587,7.3404456]}},{"type":"Feature","id":"node/4753573110","properties":{"id":"node/4753573110","osmId":4753573110,"osmType":"node","name":"Angulana","nameSi":null,"nameTa":null,"kind":"station"},"geometry":{"type":"Point","coordinates":[79.8727054,6.7988303]}},{"type":"Feature","id":"node/4753573335","properties":{"id":"node/4753573335","osmId":4753573335,"osmType":"node","name":"Lunawa","nameSi":null,"nameTa":null,"kind":"station"},"geometry":{"type":"Point","coordinates":[79.8755526,6.786652]}},{"type":"Feature","id":"node/4762471168","properties":{"id":"node/4762471168","osmId":4762471168,"osmType":"node","name":"Bambalapitiya","nameSi":null,"nameTa":null,"kind":"station"},"geometry":{"type":"Point","coordinates":[79.8529609,6.8939771]}},{"type":"Feature","id":"node/4775762063","properties":{"id":"node/4775762063","osmId":4775762063,"osmType":"node","name":"Perakumpura Sub Railway","nameSi":null,"nameTa":null,"kind":"station"},"geometry":{"type":"Point","coordinates":[80.7536319,6.9198221]}},{"type":"Feature","id":"node/4949449992","properties":{"id":"node/4949449992","osmId":4949449992,"osmType":"node","name":"Kadigamuwa","nameSi":null,"nameTa":null,"kind":"station"},"geometry":{"type":"Point","coordinates":[80.4333295,7.3179288]}},{"type":"Feature","id":"node/5172591870","properties":{"id":"node/5172591870","osmId":5172591870,"osmType":"node","name":"Glenanore Railway Station","nameSi":null,"nameTa":null,"kind":"station"},"geometry":{"type":"Point","coordinates":[80.9366065,6.7712498]}},{"type":"Feature","id":"node/5260460514","properties":{"id":"node/5260460514","osmId":5260460514,"osmType":"node","name":"Wadurawa Railway Station","nameSi":null,"nameTa":null,"kind":"station"},"geometry":{"type":"Point","coordinates":[80.0660584,7.167838]}},{"type":"Feature","id":"node/5338791530","properties":{"id":"node/5338791530","osmId":5338791530,"osmType":"node","name":"Battulu Oya","nameSi":null,"nameTa":null,"kind":"station"},"geometry":{"type":"Point","coordinates":[79.8316925,7.7272017]}},{"type":"Feature","id":"node/5345933452","properties":{"id":"node/5345933452","osmId":5345933452,"osmType":"node","name":"Bambaranda","nameSi":null,"nameTa":null,"kind":"station"},"geometry":{"type":"Point","coordinates":[80.6607525,5.9705981]}},{"type":"Feature","id":"node/5610108237","properties":{"id":"node/5610108237","osmId":5610108237,"osmType":"node","name":"IPZ - Katunayake South","nameSi":null,"nameTa":null,"kind":"station"},"geometry":{"type":"Point","coordinates":[79.8752569,7.157917]}},{"type":"Feature","id":"node/5769656114","properties":{"id":"node/5769656114","osmId":5769656114,"osmType":"node","name":"Yagoda","nameSi":null,"nameTa":null,"kind":"station"},"geometry":{"type":"Point","coordinates":[79.9739,7.0747267]}},{"type":"Feature","id":"node/5769656115","properties":{"id":"node/5769656115","osmId":5769656115,"osmType":"node","name":"Ragama","nameSi":null,"nameTa":null,"kind":"station"},"geometry":{"type":"Point","coordinates":[79.921428,7.0299493]}},{"type":"Feature","id":"node/5769656116","properties":{"id":"node/5769656116","osmId":5769656116,"osmType":"node","name":"Horape","nameSi":null,"nameTa":null,"kind":"station"},"geometry":{"type":"Point","coordinates":[79.918322,7.0165896]}},{"type":"Feature","id":"node/5769656117","properties":{"id":"node/5769656117","osmId":5769656117,"osmType":"node","name":"Enderamulla","nameSi":null,"nameTa":null,"kind":"station"},"geometry":{"type":"Point","coordinates":[79.9068341,7.0004396]}},{"type":"Feature","id":"node/5769656118","properties":{"id":"node/5769656118","osmId":5769656118,"osmType":"node","name":"Hunupitiya","nameSi":null,"nameTa":null,"kind":"station"},"geometry":{"type":"Point","coordinates":[79.9004906,6.9877406]}},{"type":"Feature","id":"node/5769697428","properties":{"id":"node/5769697428","osmId":5769697428,"osmType":"node","name":"Heendeniya-Pattigoda","nameSi":null,"nameTa":null,"kind":"station"},"geometry":{"type":"Point","coordinates":[80.0472008,7.1410796]}},{"type":"Feature","id":"node/5769697429","properties":{"id":"node/5769697429","osmId":5769697429,"osmType":"node","name":"Megalegoda","nameSi":null,"nameTa":null,"kind":"station"},"geometry":{"type":"Point","coordinates":[80.0363003,7.133754]}},{"type":"Feature","id":"node/5769697430","properties":{"id":"node/5769697430","osmId":5769697430,"osmType":"node","name":"Bemmulla","nameSi":null,"nameTa":null,"kind":"station"},"geometry":{"type":"Point","coordinates":[80.0204927,7.1224062]}},{"type":"Feature","id":"node/5769697431","properties":{"id":"node/5769697431","osmId":5769697431,"osmType":"node","name":"Daraluwa","nameSi":null,"nameTa":null,"kind":"station"},"geometry":{"type":"Point","coordinates":[80.0104022,7.1070543]}},{"type":"Feature","id":"node/5769697432","properties":{"id":"node/5769697432","osmId":5769697432,"osmType":"node","name":"Gampaha","nameSi":null,"nameTa":null,"kind":"station"},"geometry":{"type":"Point","coordinates":[79.992772,7.0920985]}},{"type":"Feature","id":"node/5769702653","properties":{"id":"node/5769702653","osmId":5769702653,"osmType":"node","name":"Veyangoda","nameSi":null,"nameTa":null,"kind":"station"},"geometry":{"type":"Point","coordinates":[80.0584119,7.1530741]}},{"type":"Feature","id":"node/5769719768","properties":{"id":"node/5769719768","osmId":5769719768,"osmType":"node","name":"Wijayarajadahana","nameSi":null,"nameTa":null,"kind":"station"},"geometry":{"type":"Point","coordinates":[80.1184778,7.2309324]}},{"type":"Feature","id":"node/5769838363","properties":{"id":"node/5769838363","osmId":5769838363,"osmType":"node","name":"Alawathupitiya","nameSi":null,"nameTa":null,"kind":"station"},"geometry":{"type":"Point","coordinates":[79.8870266,7.115952]}},{"type":"Feature","id":"node/5769838364","properties":{"id":"node/5769838364","osmId":5769838364,"osmType":"node","name":"Kudahakapola","nameSi":null,"nameTa":null,"kind":"station"},"geometry":{"type":"Point","coordinates":[79.889808,7.103893]}},{"type":"Feature","id":"node/5769838365","properties":{"id":"node/5769838365","osmId":5769838365,"osmType":"node","name":"Tudella","nameSi":null,"nameTa":null,"kind":"station"},"geometry":{"type":"Point","coordinates":[79.8909487,7.0929503]}},{"type":"Feature","id":"node/5769838366","properties":{"id":"node/5769838366","osmId":5769838366,"osmType":"node","name":"Ja ela","nameSi":null,"nameTa":null,"kind":"station"},"geometry":{"type":"Point","coordinates":[79.8921517,7.0777904]}},{"type":"Feature","id":"node/5769838367","properties":{"id":"node/5769838367","osmId":5769838367,"osmType":"node","name":"Kapuwatta","nameSi":null,"nameTa":null,"kind":"station"},"geometry":{"type":"Point","coordinates":[79.896002,7.0629149]}},{"type":"Feature","id":"node/5769838368","properties":{"id":"node/5769838368","osmId":5769838368,"osmType":"node","name":"Kandana","nameSi":null,"nameTa":null,"kind":"station"},"geometry":{"type":"Point","coordinates":[79.9015367,7.04929]}},{"type":"Feature","id":"node/5769838369","properties":{"id":"node/5769838369","osmId":5769838369,"osmType":"node","name":"Peralanda","nameSi":null,"nameTa":null,"kind":"station"},"geometry":{"type":"Point","coordinates":[79.9122199,7.0381323]}},{"type":"Feature","id":"node/5769840419","properties":{"id":"node/5769840419","osmId":5769840419,"osmType":"node","name":"Katunayake","nameSi":null,"nameTa":null,"kind":"station"},"geometry":{"type":"Point","coordinates":[79.8718829,7.1674441]}},{"type":"Feature","id":"node/5785426625","properties":{"id":"node/5785426625","osmId":5785426625,"osmType":"node","name":"Thoddaweli","nameSi":null,"nameTa":null,"kind":"halt"},"geometry":{"type":"Point","coordinates":[79.8672988,9.0252665]}},{"type":"Feature","id":"node/5847983789","properties":{"id":"node/5847983789","osmId":5847983789,"osmType":"node","name":"Maradana","nameSi":null,"nameTa":"மருதானை","kind":"station"},"geometry":{"type":"Point","coordinates":[79.865796,6.9292373]}},{"type":"Feature","id":"node/6298925921","properties":{"id":"node/6298925921","osmId":6298925921,"osmType":"node","name":"Boossa","nameSi":null,"nameTa":null,"kind":"station"},"geometry":{"type":"Point","coordinates":[80.1611425,6.0739289]}},{"type":"Feature","id":"node/6402509511","properties":{"id":"node/6402509511","osmId":6402509511,"osmType":"node","name":"Wewrukannala","nameSi":null,"nameTa":null,"kind":"station"},"geometry":{"type":"Point","coordinates":[80.6973864,5.9794925]}},{"type":"Feature","id":"node/6541919413","properties":{"id":"node/6541919413","osmId":6541919413,"osmType":"node","name":"Kompannavidiya","nameSi":null,"nameTa":null,"kind":"station"},"geometry":{"type":"Point","coordinates":[79.8496524,6.9230404]}},{"type":"Feature","id":"node/7483359602","properties":{"id":"node/7483359602","osmId":7483359602,"osmType":"node","name":"Kekanadura","nameSi":null,"nameTa":null,"kind":"station"},"geometry":{"type":"Point","coordinates":[80.5990478,5.9606591]}},{"type":"Feature","id":"node/7571568170","properties":{"id":"node/7571568170","osmId":7571568170,"osmType":"node","name":"Bambalapitiya","nameSi":null,"nameTa":null,"kind":"station"},"geometry":{"type":"Point","coordinates":[79.8529894,6.893674]}},{"type":"Feature","id":"node/7571568171","properties":{"id":"node/7571568171","osmId":7571568171,"osmType":"node","name":"Kollupitiya","nameSi":null,"nameTa":"கொள்ளுபிட்டி","kind":"station"},"geometry":{"type":"Point","coordinates":[79.8481929,6.9113228]}},{"type":"Feature","id":"node/8158766889","properties":{"id":"node/8158766889","osmId":8158766889,"osmType":"node","name":"Puwakpitiya","nameSi":null,"nameTa":null,"kind":"station"},"geometry":{"type":"Point","coordinates":[80.1880442,6.9337144]}},{"type":"Feature","id":"node/8710649328","properties":{"id":"node/8710649328","osmId":8710649328,"osmType":"node","name":"Eluthumadduval","nameSi":null,"nameTa":null,"kind":"station"},"geometry":{"type":"Point","coordinates":[80.2808064,9.6521856]}},{"type":"Feature","id":"node/8972985817","properties":{"id":"node/8972985817","osmId":8972985817,"osmType":"node","name":"Ambewela","nameSi":null,"nameTa":null,"kind":"station"},"geometry":{"type":"Point","coordinates":[80.8143421,6.8773347]}},{"type":"Feature","id":"node/8997200408","properties":{"id":"node/8997200408","osmId":8997200408,"osmType":"node","name":"Godagama","nameSi":null,"nameTa":null,"kind":"station"},"geometry":{"type":"Point","coordinates":[80.0328649,6.8479029]}},{"type":"Feature","id":"node/9552182535","properties":{"id":"node/9552182535","osmId":9552182535,"osmType":"node","name":"Ella Railway Station","nameSi":null,"nameTa":null,"kind":"station"},"geometry":{"type":"Point","coordinates":[81.0474878,6.876147]}},{"type":"Feature","id":"node/9779639998","properties":{"id":"node/9779639998","osmId":9779639998,"osmType":"node","name":null,"nameSi":null,"nameTa":null,"kind":"station"},"geometry":{"type":"Point","coordinates":[80.0246792,9.7041298]}},{"type":"Feature","id":"node/9785228872","properties":{"id":"node/9785228872","osmId":9785228872,"osmType":"node","name":"vavuniya Railway  station","nameSi":null,"nameTa":null,"kind":"station"},"geometry":{"type":"Point","coordinates":[80.4936629,8.753866]}},{"type":"Feature","id":"node/10046923330","properties":{"id":"node/10046923330","osmId":10046923330,"osmType":"node","name":"Dehiwala","nameSi":null,"nameTa":null,"kind":"station"},"geometry":{"type":"Point","coordinates":[79.8621137,6.8509082]}},{"type":"Feature","id":"node/10050777317","properties":{"id":"node/10050777317","osmId":10050777317,"osmType":"node","name":"Watareka","nameSi":null,"nameTa":null,"kind":"station"},"geometry":{"type":"Point","coordinates":[80.0598726,6.8431734]}},{"type":"Feature","id":"node/10050777326","properties":{"id":"node/10050777326","osmId":10050777326,"osmType":"node","name":"Panagoda","nameSi":null,"nameTa":null,"kind":"station"},"geometry":{"type":"Point","coordinates":[80.0190057,6.846941]}},{"type":"Feature","id":"node/10050777328","properties":{"id":"node/10050777328","osmId":10050777328,"osmType":"node","name":"Homagama","nameSi":null,"nameTa":null,"kind":"station"},"geometry":{"type":"Point","coordinates":[80.0042414,6.8456046]}},{"type":"Feature","id":"node/10050777335","properties":{"id":"node/10050777335","osmId":10050777335,"osmType":"node","name":"Homagama Hospital","nameSi":null,"nameTa":null,"kind":"station"},"geometry":{"type":"Point","coordinates":[79.992439,6.8457616]}},{"type":"Feature","id":"node/10050777338","properties":{"id":"node/10050777338","osmId":10050777338,"osmType":"node","name":"Malapalla","nameSi":null,"nameTa":null,"kind":"station"},"geometry":{"type":"Point","coordinates":[79.9750754,6.8440838]}},{"type":"Feature","id":"node/10050777350","properties":{"id":"node/10050777350","osmId":10050777350,"osmType":"node","name":"Pannipitiya","nameSi":null,"nameTa":null,"kind":"station"},"geometry":{"type":"Point","coordinates":[79.9488784,6.8473816]}},{"type":"Feature","id":"node/10050777356","properties":{"id":"node/10050777356","osmId":10050777356,"osmType":"node","name":"Maharagama","nameSi":null,"nameTa":null,"kind":"station"},"geometry":{"type":"Point","coordinates":[79.9271848,6.8480166]}},{"type":"Feature","id":"node/10252945311","properties":{"id":"node/10252945311","osmId":10252945311,"osmType":"node","name":"Rameswaram","nameSi":null,"nameTa":null,"kind":"station"},"geometry":{"type":"Point","coordinates":[79.3090043,9.2819518]}},{"type":"Feature","id":"node/10964875325","properties":{"id":"node/10964875325","osmId":10964875325,"osmType":"node","name":null,"nameSi":null,"nameTa":null,"kind":"station"},"geometry":{"type":"Point","coordinates":[80.021157,9.6881931]}},{"type":"Feature","id":"node/11028932205","properties":{"id":"node/11028932205","osmId":11028932205,"osmType":"node","name":"Waikkala","nameSi":null,"nameTa":null,"kind":"halt"},"geometry":{"type":"Point","coordinates":[79.8602067,7.2774201]}},{"type":"Feature","id":"node/11192254346","properties":{"id":"node/11192254346","osmId":11192254346,"osmType":"node","name":"Railway Station, Mannar","nameSi":null,"nameTa":null,"kind":"station"},"geometry":{"type":"Point","coordinates":[79.8937444,8.9713411]}},{"type":"Feature","id":"node/11960031252","properties":{"id":"node/11960031252","osmId":11960031252,"osmType":"node","name":"kotagala railway station","nameSi":null,"nameTa":null,"kind":"station"},"geometry":{"type":"Point","coordinates":[80.6086713,6.9283117]}},{"type":"Feature","id":"node/12389487403","properties":{"id":"node/12389487403","osmId":12389487403,"osmType":"node","name":"Pilimatalawa","nameSi":null,"nameTa":null,"kind":"station"},"geometry":{"type":"Point","coordinates":[80.5526682,7.2669217]}},{"type":"Feature","id":"node/12514925408","properties":{"id":"node/12514925408","osmId":12514925408,"osmType":"node","name":"Weherahena","nameSi":null,"nameTa":null,"kind":"station"},"geometry":{"type":"Point","coordinates":[80.5779236,5.9570646]}},{"type":"Feature","id":"node/12628680967","properties":{"id":"node/12628680967","osmId":12628680967,"osmType":"node","name":"Uduwara","nameSi":null,"nameTa":null,"kind":"station"},"geometry":{"type":"Point","coordinates":[81.0446989,6.9303742]}},{"type":"Feature","id":"node/12633608551","properties":{"id":"node/12633608551","osmId":12633608551,"osmType":"node","name":"Ganegoda","nameSi":null,"nameTa":null,"kind":"station"},"geometry":{"type":"Point","coordinates":[80.1052505,7.2129312]}},{"type":"Feature","id":"node/12641162740","properties":{"id":"node/12641162740","osmId":12641162740,"osmType":"node","name":"Thiruketheeswaram","nameSi":null,"nameTa":null,"kind":"station"},"geometry":{"type":"Point","coordinates":[79.9477753,8.9154185]}},{"type":"Feature","id":"node/12643612533","properties":{"id":"node/12643612533","osmId":12643612533,"osmType":"node","name":"Jaffna","nameSi":null,"nameTa":"யாழ்ப்பாணம்","kind":"station"},"geometry":{"type":"Point","coordinates":[80.0207059,9.6654661]}},{"type":"Feature","id":"node/12643612534","properties":{"id":"node/12643612534","osmId":12643612534,"osmType":"node","name":"Kachcheri","nameSi":null,"nameTa":"கச்சேரி","kind":"halt"},"geometry":{"type":"Point","coordinates":[80.0287291,9.6625172]}},{"type":"Feature","id":"node/12662892465","properties":{"id":"node/12662892465","osmId":12662892465,"osmType":"node","name":"Pattipola","nameSi":null,"nameTa":null,"kind":"station"},"geometry":{"type":"Point","coordinates":[80.8306009,6.8558565]}},{"type":"Feature","id":"node/12670315153","properties":{"id":"node/12670315153","osmId":12670315153,"osmType":"node","name":"Kadugoda","nameSi":null,"nameTa":null,"kind":"station"},"geometry":{"type":"Point","coordinates":[80.1348044,6.9180501]}},{"type":"Feature","id":"node/12982392314","properties":{"id":"node/12982392314","osmId":12982392314,"osmType":"node","name":"Gangoda","nameSi":null,"nameTa":null,"kind":"station"},"geometry":{"type":"Point","coordinates":[80.4534106,7.2983135]}},{"type":"Feature","id":"node/13116777774","properties":{"id":"node/13116777774","osmId":13116777774,"osmType":"node","name":"Boralessa","nameSi":null,"nameTa":null,"kind":"halt"},"geometry":{"type":"Point","coordinates":[79.8630959,7.319893]}},{"type":"Feature","id":"node/13447631673","properties":{"id":"node/13447631673","osmId":13447631673,"osmType":"node","name":"Colombo Fort","nameSi":null,"nameTa":null,"kind":"station"},"geometry":{"type":"Point","coordinates":[79.8503417,6.9333986]}},{"type":"Feature","id":"node/13683968856","properties":{"id":"node/13683968856","osmId":13683968856,"osmType":"node","name":"Habaraduwa","nameSi":null,"nameTa":null,"kind":"station"},"geometry":{"type":"Point","coordinates":[80.3072789,5.9941093]}},{"type":"Feature","id":"way/6504048","properties":{"id":"way/6504048","osmId":6504048,"osmType":"way","name":"Coastal Line","nameSi":null,"nameTa":null,"kind":"rail","gauge":"1676","electrified":"no"},"geometry":{"type":"LineString","coordinates":[[80.2175191,6.0419411],[80.2174403,6.0418898],[80.2170448,6.0417149],[80.2160728,6.0411408],[80.2154349,6.0407481],[80.2151873,6.040591],[80.2150861,6.0404898],[80.2149622,6.0403693],[80.2148215,6.0402002],[80.2146405,6.0399307],[80.214529,6.0397278],[80.214433,6.039473]]}},{"type":"Feature","id":"way/6504056","properties":{"id":"way/6504056","osmId":6504056,"osmType":"way","name":"Coastal Line","nameSi":null,"nameTa":null,"kind":"rail","gauge":"1676","electrified":"no"},"geometry":{"type":"LineString","coordinates":[[80.2143332,6.0334776],[80.214293,6.0337403],[80.2142474,6.0340457],[80.2141964,6.0344072],[80.2141428,6.0348726],[80.2141216,6.0352624],[80.2141106,6.0354661],[80.2141074,6.0356529],[80.2141052,6.0357835],[80.2141334,6.0360569],[80.2142104,6.0364009],[80.2142581,6.0365717],[80.2143349,6.0369127],[80.2144231,6.0372699],[80.214462,6.0374904],[80.2144553,6.0376993],[80.2144258,6.0378718],[80.2143654,6.0381034],[80.2142633,6.0384309],[80.2141005,6.0389376],[80.2139758,6.0393377]]}},{"type":"Feature","id":"way/8072149","properties":{"id":"way/8072149","osmId":8072149,"osmType":"way","name":"Coastal Line","nameSi":null,"nameTa":null,"kind":"rail","gauge":"1676","electrified":"no"},"geometry":{"type":"LineString","coordinates":[[80.2390141,6.0342178],[80.2387993,6.0344869],[80.2383979,6.0349837],[80.2380522,6.0353937],[80.237722,6.035808],[80.2374675,6.0361018],[80.237204,6.0364558],[80.2369878,6.0367303],[80.2367708,6.0370127],[80.2364495,6.0373902],[80.2363389,6.0375386],[80.2362248,6.0376723],[80.2360317,6.0378846],[80.2357827,6.0381],[80.2356511,6.0382104],[80.2354169,6.0383591],[80.234939,6.0385741],[80.2348499,6.0386037],[80.2346203,6.0386816],[80.234393,6.0387384],[80.2338937,6.0388642],[80.2331374,6.0390307],[80.232346,6.039208],[80.2321451,6.0392527],[80.2318983,6.0392952]]}},{"type":"Feature","id":"way/8072150","properties":{"id":"way/8072150","osmId":8072150,"osmType":"way","name":"Coastal Line","nameSi":null,"nameTa":null,"kind":"rail","gauge":"1676","electrified":"no"},"geometry":{"type":"LineString","coordinates":[[80.2184464,6.0421605],[80.2182523,6.0421481],[80.2180642,6.0421117],[80.2175191,6.0419411]]}},{"type":"Feature","id":"way/8873168","properties":{"id":"way/8873168","osmId":8873168,"osmType":"way","name":"Coastal Line","nameSi":null,"nameTa":null,"kind":"rail","gauge":"1676","electrified":"no"},"geometry":{"type":"LineString","coordinates":[[80.1950688,6.0538425],[80.1946243,6.0536804],[80.1943165,6.0535906],[80.1940342,6.0535351],[80.193714,6.0534911],[80.1933315,6.0534937],[80.1929408,6.0535174],[80.1928146,6.0535269],[80.1924462,6.0535596],[80.1923642,6.0535677],[80.190995,6.0536844],[80.1894902,6.0538127],[80.1889568,6.0538565],[80.1884957,6.0539061],[80.1881613,6.053968],[80.1878624,6.0540512],[80.1876151,6.0541475],[80.187343,6.0542748],[80.18708,6.0544175],[80.186866,6.0545633],[80.1866321,6.0547604],[80.1863831,6.0549947],[80.1856061,6.0559388],[80.185009,6.0567071],[80.1848637,6.0568491],[80.1846706,6.0570025],[80.1838834,6.0575986],[80.1836312,6.0577953],[80.1833931,6.0579605],[80.1831243,6.0581127],[80.1829055,6.058216],[80.1827314,6.0582774],[80.1824831,6.0583473],[80.1824377,6.0583588],[80.1821761,6.0584341],[80.1818341,6.0585618],[80.1814922,6.0587168],[80.181138,6.0589332],[80.180835,6.0591636],[80.1804847,6.0595046],[80.179911,6.0601831],[80.1794464,6.0607181],[80.1790058,6.0612254],[80.1788051,6.0614163],[80.1783416,6.0618145]]}},{"type":"Feature","id":"way/8873169","properties":{"id":"way/8873169","osmId":8873169,"osmType":"way","name":"Coastal Line","nameSi":null,"nameTa":null,"kind":"rail","gauge":"1676","electrified":"no"},"geometry":{"type":"LineString","coordinates":[[80.1953004,6.0539289],[80.1952037,6.0538948],[80.1950688,6.0538425]]}},{"type":"Feature","id":"way/10548401","properties":{"id":"way/10548401","osmId":10548401,"osmType":"way","name":null,"nameSi":null,"nameTa":null,"kind":"rail","gauge":"1676","electrified":"no"},"geometry":{"type":"LineString","coordinates":[[79.8539164,6.932833],[79.8537478,6.9328874],[79.8536102,6.9329321],[79.8531357,6.9330806],[79.852597,6.933181],[79.8523196,6.9332293],[79.8522932,6.9332339]]}},{"type":"Feature","id":"way/19314656","properties":{"id":"way/19314656","osmId":19314656,"osmType":"way","name":"Coastal Line","nameSi":null,"nameTa":null,"kind":"rail","gauge":"1676","electrified":"no"},"geometry":{"type":"LineString","coordinates":[[80.2140008,6.0393446],[80.2139632,6.0394578]]}},{"type":"Feature","id":"way/19314659","properties":{"id":"way/19314659","osmId":19314659,"osmType":"way","name":"Coastal Line","nameSi":null,"nameTa":null,"kind":"rail","gauge":"1676","electrified":"no"},"geometry":{"type":"LineString","coordinates":[[80.2143995,6.0381458],[80.2144633,6.03787],[80.2144874,6.0377007],[80.2144928,6.0374873],[80.2144553,6.0372619],[80.2143686,6.0369067],[80.2143369,6.0367719],[80.2142755,6.0365117],[80.2142085,6.0362743],[80.214159,6.0360492],[80.2141361,6.0357862],[80.2141414,6.0354728],[80.2141843,6.0347699],[80.2142286,6.0344165],[80.2142849,6.0340564],[80.2143307,6.0337519],[80.2143753,6.0334858]]}},{"type":"Feature","id":"way/19314680","properties":{"id":"way/19314680","osmId":19314680,"osmType":"way","name":"Coastal Line","nameSi":null,"nameTa":null,"kind":"rail","gauge":"1676","electrified":"no"},"geometry":{"type":"LineString","coordinates":[[80.214433,6.039473],[80.2143863,6.0393341]]}},{"type":"Feature","id":"way/19314715","properties":{"id":"way/19314715","osmId":19314715,"osmType":"way","name":"Coastal Line","nameSi":null,"nameTa":null,"kind":"rail","gauge":"1676","electrified":"no"},"geometry":{"type":"LineString","coordinates":[[80.2139632,6.0394578],[80.2138337,6.0398419],[80.2137297,6.0401059],[80.2137101,6.0401585],[80.2132697,6.0410515],[80.2129249,6.041804],[80.212763,6.0421441],[80.2120817,6.0435323],[80.2116382,6.0444633],[80.2113787,6.0450651],[80.2112204,6.0453652],[80.211093,6.0455853],[80.2109241,6.0458453],[80.2106525,6.046301],[80.2101236,6.0471789],[80.2098941,6.0475764],[80.2097157,6.0479311],[80.209471,6.0484691],[80.2092584,6.0489407],[80.2089768,6.0495222],[80.2087702,6.0499823],[80.2086066,6.0502717],[80.2084198,6.0505727],[80.2081735,6.0509158],[80.2078784,6.0512772],[80.2075696,6.0516186],[80.2067729,6.0525115],[80.2061747,6.0531378],[80.2058292,6.0533977],[80.2055197,6.0536153],[80.2052431,6.0537218],[80.2050195,6.0538018],[80.2047899,6.0538708],[80.2045082,6.0539391],[80.2042223,6.0539892],[80.203835,6.0540378],[80.2034422,6.0540511],[80.2026494,6.0540378],[80.2022485,6.0540338],[80.2019565,6.0540463],[80.2014921,6.0541032],[80.200902,6.0541912],[80.1999718,6.0543583],[80.1994446,6.0544444],[80.1989597,6.0545217],[80.198146,6.0546181],[80.197804,6.0546166],[80.1974606,6.0545988],[80.1971536,6.0545446],[80.1968387,6.0544634],[80.1964307,6.0543179],[80.1959636,6.0541559],[80.1953004,6.0539289]]}},{"type":"Feature","id":"way/19315509","properties":{"id":"way/19315509","osmId":19315509,"osmType":"way","name":"Coastal Line","nameSi":null,"nameTa":null,"kind":"rail","gauge":"1676","electrified":"no"},"geometry":{"type":"LineString","coordinates":[[79.9592901,6.587396],[79.9591379,6.5891367]]}},{"type":"Feature","id":"way/19325164","properties":{"id":"way/19325164","osmId":19325164,"osmType":"way","name":"Coastal Line","nameSi":null,"nameTa":null,"kind":"rail","gauge":"1676","electrified":"no"},"geometry":{"type":"LineString","coordinates":[[79.9034096,6.7155201],[79.9024146,6.7170158]]}},{"type":"Feature","id":"way/19325167","properties":{"id":"way/19325167","osmId":19325167,"osmType":"way","name":"Coastal Line","nameSi":null,"nameTa":null,"kind":"rail","gauge":"1676","electrified":"no"},"geometry":{"type":"LineString","coordinates":[[79.9024146,6.7170158],[79.9019572,6.7177137],[79.9015944,6.7183291],[79.9008508,6.7196117],[79.9001234,6.7208632],[79.8996988,6.7216321],[79.8994341,6.7221551],[79.8992182,6.7226866],[79.8982472,6.7252331],[79.8976243,6.7268946],[79.8970166,6.7285326],[79.896306,6.7303894],[79.8956245,6.7322152],[79.8939912,6.7365306],[79.8923286,6.74093],[79.8920389,6.7417051],[79.8915809,6.7429002]]}},{"type":"Feature","id":"way/23553596","properties":{"id":"way/23553596","osmId":23553596,"osmType":"way","name":"Main Line","nameSi":null,"nameTa":null,"kind":"rail","gauge":"1676","electrified":"no"},"geometry":{"type":"LineString","coordinates":[[79.8539273,6.9328676],[79.8536226,6.932963],[79.8534031,6.933036],[79.8531323,6.9331179],[79.852615,6.9332798],[79.8523283,6.9333439],[79.8523031,6.9333495],[79.8501412,6.9335444],[79.8494563,6.9336029],[79.849334,6.9336121],[79.8488385,6.9336493],[79.8486122,6.9336731],[79.8481495,6.9336645]]}},{"type":"Feature","id":"way/23570034","properties":{"id":"way/23570034","osmId":23570034,"osmType":"way","name":"Coastal Line","nameSi":null,"nameTa":null,"kind":"rail","gauge":"1676","electrified":"no"},"geometry":{"type":"LineString","coordinates":[[79.8476858,6.933601],[79.8474465,6.9335506],[79.8472602,6.9334946],[79.8471279,6.9334449],[79.8470075,6.9333856],[79.8469014,6.9333275],[79.8466825,6.9331683],[79.8465695,6.9330614],[79.8464254,6.9328981],[79.8462399,6.9325907],[79.8460932,6.9321856],[79.8460181,6.9317702],[79.8459992,6.9314515],[79.8460373,6.9311206],[79.8461131,6.9308133]]}},{"type":"Feature","id":"way/24254017","properties":{"id":"way/24254017","osmId":24254017,"osmType":"way","name":null,"nameSi":null,"nameTa":null,"kind":"rail","gauge":null,"electrified":null},"geometry":{"type":"LineString","coordinates":[[79.8555154,6.932455],[79.8557514,6.9323698],[79.8561148,6.9322114],[79.8562838,6.9321155],[79.8565131,6.9319504],[79.8572899,6.9312827],[79.8575067,6.931006],[79.8577359,6.9305276],[79.8581023,6.9299793],[79.8585876,6.929486],[79.8590504,6.9291296]]}},{"type":"Feature","id":"way/27713217","properties":{"id":"way/27713217","osmId":27713217,"osmType":"way","name":"Puttalam Line","nameSi":null,"nameTa":null,"kind":"rail","gauge":"1676","electrified":"no"},"geometry":{"type":"LineString","coordinates":[[79.8844907,7.1233104],[79.8845431,7.1231644],[79.8854526,7.1206303],[79.8859149,7.1193687],[79.8869414,7.1163435],[79.8870741,7.1159617],[79.8874515,7.1148756],[79.8875979,7.1143217],[79.8876822,7.1137817],[79.8877537,7.1130692],[79.8878789,7.1117989],[79.8880451,7.110618],[79.888319,7.1094449],[79.8886108,7.1081946],[79.8887847,7.1074667],[79.8890354,7.1064176],[79.8893569,7.1052146],[79.8895557,7.1043309],[79.8897193,7.1038647],[79.8898818,7.1034016],[79.890465,7.1017393],[79.8905707,7.101276],[79.8906172,7.100811],[79.8906291,7.099657],[79.8906579,7.0978391],[79.890695,7.0954946],[79.8907204,7.0947458],[79.8908509,7.0938593]]}},{"type":"Feature","id":"way/28307403","properties":{"id":"way/28307403","osmId":28307403,"osmType":"way","name":"Coastal Line","nameSi":null,"nameTa":null,"kind":"rail","gauge":"1676","electrified":"no"},"geometry":{"type":"LineString","coordinates":[[80.2390141,6.0342178],[80.239654,6.0334363],[80.2402088,6.0327569],[80.2404665,6.0324305],[80.2405761,6.0322933],[80.2407526,6.0320655],[80.2413838,6.031278],[80.2415161,6.031113],[80.2423532,6.0301086],[80.2424106,6.0300293],[80.2428377,6.0294876],[80.2431992,6.0290514]]}},{"type":"Feature","id":"way/28530378","properties":{"id":"way/28530378","osmId":28530378,"osmType":"way","name":"Airport Branch","nameSi":null,"nameTa":null,"kind":"rail","gauge":"1676","electrified":null},"geometry":{"type":"LineString","coordinates":[[79.8831128,7.1691603],[79.8825142,7.1681887],[79.8820209,7.1675253],[79.8809466,7.16611],[79.8804484,7.1655402],[79.8797188,7.1646765],[79.8785595,7.1633544],[79.8763191,7.1607993],[79.87568,7.1599877],[79.875611,7.1598472],[79.8755303,7.1597034],[79.875469,7.1595427],[79.8753377,7.1590039],[79.8752989,7.1585579],[79.8753003,7.1582405],[79.8753909,7.1577432]]}},{"type":"Feature","id":"way/29476220","properties":{"id":"way/29476220","osmId":29476220,"osmType":"way","name":"Coastal Line","nameSi":null,"nameTa":null,"kind":"rail","gauge":"1676","electrified":"no"},"geometry":{"type":"LineString","coordinates":[[79.9589716,6.5919702],[79.9589267,6.5923751],[79.958861,6.5927602],[79.9587488,6.5931348],[79.9586798,6.5933009],[79.958472,6.5937072],[79.9580003,6.594563],[79.9571612,6.5962365],[79.9568744,6.5968182],[79.9564298,6.5976467],[79.9553607,6.59938],[79.954835,6.6002713],[79.9542714,6.6011889],[79.9538646,6.6019243],[79.953415,6.6026911],[79.9532102,6.603028],[79.9530898,6.6032272],[79.9529814,6.6034164],[79.9521546,6.6047604],[79.9512651,6.6063683],[79.9505132,6.6077514],[79.9502437,6.6082451],[79.9494846,6.6095718],[79.9492607,6.6100196],[79.9490796,6.6104473],[79.9488775,6.6109544],[79.9486961,6.6114315],[79.9481703,6.6129331],[79.9478129,6.6139723],[79.9476417,6.6144621],[79.9474593,6.6149616],[79.9473067,6.6153457],[79.9471789,6.6156133],[79.9463652,6.6170735],[79.9454912,6.6186674],[79.9447975,6.6198972],[79.9440149,6.6213659],[79.9438933,6.6216513],[79.9437945,6.6218997],[79.9437059,6.6221689],[79.9435873,6.6225206],[79.9433648,6.623201],[79.9427551,6.6250846],[79.9423593,6.6262044],[79.9419106,6.6275962],[79.9413093,6.6294732],[79.940915,6.6306331],[79.9406468,6.6314741],[79.9402918,6.6325318],[79.9401613,6.6329208],[79.939927,6.6336658],[79.939513,6.6348477],[79.9393231,6.6354414],[79.9393135,6.6354696],[79.9388979,6.6366727],[79.9385737,6.6377293],[79.938129,6.6390416],[79.9374183,6.6408536],[79.9369912,6.6419431],[79.9367295,6.6426277],[79.9364988,6.643234],[79.9362023,6.6440652],[79.93585,6.6451651],[79.9355679,6.6461474],[79.9352379,6.6473049],[79.9347692,6.6489063],[79.9345819,6.6495654],[79.93435,6.6502276],[79.934108,6.650777],[79.93389,6.6512363],[79.9336358,6.6517718],[79.9329409,6.6532045],[79.9324382,6.6542246],[79.9323022,6.6545124],[79.9318903,6.6553819],[79.9314731,6.656267],[79.931233,6.6568757],[79.9309884,6.657504],[79.9308227,6.6579348],[79.9306144,6.6584819],[79.9303641,6.6590622],[79.9300648,6.6597355],[79.9298331,6.6602989],[79.9295223,6.660952],[79.9293126,6.6614413],[79.9292528,6.6615994],[79.9281166,6.6641891],[79.9279597,6.6645797],[79.9276917,6.6652709],[79.9274617,6.6658659],[79.9267398,6.6672743],[79.9259728,6.6690818],[79.9248933,6.671551],[79.9246938,6.6719586],[79.924133,6.6731441],[79.923569,6.6743688],[79.9222507,6.6768915],[79.9219283,6.6774753],[79.9215091,6.6780576],[79.9213164,6.6783177],[79.9210542,6.6786196],[79.9206459,6.6790226],[79.9198032,6.6797772],[79.9189988,6.6805701],[79.918662,6.6808668],[79.9183848,6.681181],[79.9181397,6.6815684],[79.9180039,6.6818537],[79.9179343,6.6819974],[79.9179062,6.6821381],[79.9178351,6.6823475]]}},{"type":"Feature","id":"way/29481994","properties":{"id":"way/29481994","osmId":29481994,"osmType":"way","name":"Main Line","nameSi":null,"nameTa":null,"kind":"rail","gauge":"1676","electrified":"no"},"geometry":{"type":"LineString","coordinates":[[79.8897901,6.9534357],[79.8898316,6.9531712],[79.8898522,6.9528169],[79.889814,6.9525104],[79.8896982,6.9520929],[79.8894313,6.9514986],[79.885412,6.9449702],[79.884816,6.9439408]]}},{"type":"Feature","id":"way/29481996","properties":{"id":"way/29481996","osmId":29481996,"osmType":"way","name":"Kelani Railway Bridge","nameSi":null,"nameTa":null,"kind":"rail","gauge":"1676","electrified":"no"},"geometry":{"type":"LineString","coordinates":[[79.8895496,6.9558735],[79.8895559,6.9555813],[79.88957,6.9553624],[79.8897901,6.9534357]]}},{"type":"Feature","id":"way/30617333","properties":{"id":"way/30617333","osmId":30617333,"osmType":"way","name":"Main Line","nameSi":null,"nameTa":null,"kind":"rail","gauge":"1676","electrified":null},"geometry":{"type":"LineString","coordinates":[[80.6021732,6.9171218],[80.6022904,6.9176012],[80.6023771,6.9178168],[80.6024803,6.9180085],[80.6025903,6.9181696],[80.602994,6.9186156],[80.6037155,6.9193824],[80.604087,6.9197885],[80.6044964,6.9203318],[80.6048085,6.9208149],[80.605053,6.9212318],[80.6053946,6.9218667],[80.6057017,6.922551],[80.6059779,6.9232473],[80.6061997,6.9238678],[80.6063468,6.9242138],[80.606385,6.9242913],[80.6065117,6.9245488],[80.6068684,6.925171],[80.607408,6.9260911],[80.6076972,6.9265822],[80.6080634,6.92716],[80.6081101,6.9272366],[80.6087389,6.9282671],[80.6089368,6.9285913],[80.6091577,6.9288774],[80.609442,6.9291796],[80.6097094,6.9294035],[80.6100643,6.9296562],[80.6106825,6.9300583],[80.611214,6.9303832],[80.6115087,6.9305415],[80.6117595,6.9306361],[80.6120464,6.9306946],[80.6123352,6.9307267],[80.6126949,6.9307044],[80.6129846,6.9306325],[80.6132112,6.9305473],[80.6135369,6.9303766],[80.6139032,6.9301812],[80.6140786,6.9300997],[80.6142465,6.930048],[80.6143886,6.930022],[80.61472,6.9299961],[80.6150096,6.9300081],[80.6152334,6.9299919],[80.6155166,6.9299149],[80.6159927,6.9297418],[80.6164392,6.9295807],[80.616682,6.9295195],[80.6169473,6.9295153],[80.6172493,6.9295767],[80.6172701,6.9295847],[80.6175012,6.9296897],[80.6177039,6.9298204],[80.6178797,6.9299932],[80.6180432,6.9302317],[80.6182404,6.9306109],[80.6183705,6.9308705],[80.6184885,6.9310185],[80.6186843,6.9311713],[80.6188921,6.9312768],[80.6191201,6.9313551],[80.6194755,6.9314672],[80.619788,6.9315428],[80.62002,6.931579],[80.6202008,6.9315721],[80.6203875,6.9315231],[80.6206074,6.9314299],[80.6208475,6.9313128],[80.6210111,6.9312635],[80.6211704,6.9312384],[80.6213474,6.9312393],[80.6215529,6.9312875],[80.6217037,6.9313424],[80.6219386,6.9314829],[80.6221135,6.9316709],[80.6227411,6.932487],[80.6232802,6.9331859],[80.6235029,6.9334229],[80.6238931,6.9336545],[80.6241814,6.933793],[80.6243893,6.933962],[80.6245232,6.9341455],[80.624616,6.9343561],[80.6246629,6.9345984],[80.6246535,6.9348394],[80.6246052,6.9351043],[80.6245932,6.9354025],[80.6246119,6.9355969],[80.6246911,6.9358165],[80.6248292,6.9360639],[80.6250076,6.9362426],[80.6252423,6.9363797],[80.6257369,6.9365405],[80.626008,6.9366659],[80.6261636,6.9367897],[80.6264479,6.9370626],[80.6266156,6.9371784],[80.6268878,6.9373023],[80.6271332,6.9373515],[80.6274736,6.9373276],[80.6276992,6.9373023],[80.627966,6.9372929],[80.6283067,6.9373435],[80.6286607,6.9374673],[80.6288579,6.9375925],[80.6290631,6.9377589],[80.6292656,6.9379892],[80.6294638,6.9382233],[80.6296813,6.9383859],[80.6298932,6.9384831],[80.6301105,6.938523],[80.6304243,6.9385217],[80.6308454,6.9384685],[80.6311404,6.9384685],[80.6314178,6.9385265],[80.6318713,6.9386908],[80.6320441,6.9387296],[80.6321018,6.9387371],[80.6323515,6.93874],[80.6326245,6.9386769],[80.632845,6.9385563],[80.6330381,6.9383966],[80.6333718,6.9380196],[80.6335598,6.9378774],[80.6337645,6.9377825],[80.6340064,6.9377229],[80.6343121,6.9377269],[80.634564,6.9377933],[80.6347897,6.9379259],[80.6349948,6.9380984],[80.6351463,6.938314],[80.6352697,6.9385217],[80.6357512,6.9393271],[80.6358866,6.9395095],[80.6360462,6.9396626],[80.6363949,6.9399382],[80.6369219,6.9403575],[80.6371459,6.9405972],[80.637357,6.9408805],[80.6378044,6.941605],[80.6379304,6.9418685],[80.6379801,6.9420682],[80.6379962,6.9422679],[80.6380082,6.9425275],[80.6380511,6.9427432],[80.638133,6.9429429],[80.6382786,6.9431652],[80.638365,6.9432784]]}},{"type":"Feature","id":"way/48670711","properties":{"id":"way/48670711","osmId":48670711,"osmType":"way","name":null,"nameSi":null,"nameTa":null,"kind":"rail","gauge":"1676","electrified":"no"},"geometry":{"type":"LineString","coordinates":[[80.0593904,7.1541564],[80.0599473,7.1551069],[80.0605138,7.1559694],[80.0608599,7.1565453],[80.0636397,7.1609022],[80.0639676,7.161533],[80.0642904,7.1622545],[80.0648345,7.1639038],[80.0656582,7.1663566],[80.0661299,7.167817],[80.06633,7.1684365],[80.0691382,7.1770817],[80.0695699,7.1783662],[80.0699072,7.1796024],[80.0700629,7.1803872],[80.0701527,7.181055],[80.0702324,7.1815261],[80.0703739,7.1819786],[80.0705046,7.1823079],[80.0706142,7.1825085],[80.0707427,7.1827038],[80.0708667,7.1828914],[80.0710176,7.183087],[80.0712136,7.1833072],[80.0714056,7.1834728],[80.0716481,7.1836654],[80.0718242,7.1837893],[80.071952,7.18387],[80.0730601,7.1845466],[80.0740874,7.185214],[80.0744379,7.1854014],[80.0756301,7.1860387],[80.079922,7.1879089],[80.0803298,7.1880873],[80.0807806,7.1883003],[80.0813313,7.1885927],[80.0816108,7.1887803],[80.0819686,7.1890564],[80.0823555,7.1893717],[80.0826472,7.1896418],[80.0832552,7.1903511],[80.0866759,7.1944878],[80.0893396,7.197737],[80.0894756,7.19791],[80.0898409,7.1983772],[80.0904069,7.1991013],[80.0905588,7.1992822],[80.0926365,7.2017565],[80.0945532,7.2040694],[80.0956332,7.205366],[80.0958686,7.2056338],[80.0960938,7.2058941],[80.0965824,7.2063919],[80.0977143,7.2074228],[80.1029987,7.2111708],[80.1035603,7.2115866],[80.1038602,7.2118323],[80.1042629,7.2121545],[80.10485,7.2127385],[80.1051152,7.21302]]}},{"type":"Feature","id":"way/50127293","properties":{"id":"way/50127293","osmId":50127293,"osmType":"way","name":"Main Line","nameSi":null,"nameTa":null,"kind":"rail","gauge":"1676","electrified":"no"},"geometry":{"type":"LineString","coordinates":[[79.9679435,7.0678194],[79.9672916,7.06762],[79.9668811,7.0675416],[79.9664293,7.0675466],[79.9657745,7.0676212],[79.9613695,7.0683911],[79.96072,7.0685069],[79.9590459,7.0687955],[79.9587934,7.0688281],[79.9585732,7.068833],[79.9583555,7.0688196],[79.9579671,7.0687956],[79.9578963,7.0687866],[79.9575729,7.0687176],[79.9573047,7.0686497],[79.9571631,7.0686036],[79.9570258,7.068549],[79.9567447,7.0684109],[79.9563822,7.0682057],[79.955929,7.0678891],[79.955469,7.0675785],[79.9547993,7.0672375],[79.9544354,7.0671126],[79.9541025,7.067047],[79.9536824,7.0669966],[79.9532263,7.0670002],[79.9529343,7.0670266],[79.9526139,7.0670905],[79.9516994,7.0673949],[79.9506603,7.0677929],[79.9499808,7.0680108],[79.949615,7.0680909],[79.9492728,7.0681027],[79.9488448,7.0681168],[79.9484393,7.0680669],[79.9480863,7.0679836],[79.9477666,7.0678706],[79.9475315,7.0677606],[79.9473427,7.0676677],[79.9469916,7.0674457],[79.9466708,7.067199],[79.9463962,7.0669054],[79.9463044,7.0668139],[79.9461862,7.0666757],[79.9458128,7.0662294],[79.9453498,7.0656329],[79.9426786,7.062191],[79.9409839,7.0600625],[79.9371438,7.0551316],[79.9364885,7.0542822],[79.9335612,7.0505974],[79.9316273,7.0481047],[79.9311044,7.0472812],[79.9307131,7.046604],[79.9305098,7.0461573],[79.9300812,7.0450902],[79.9298748,7.0443537],[79.9296332,7.0430114],[79.9295921,7.0423929],[79.9294818,7.0411215],[79.9293922,7.0406142],[79.9292178,7.0401533],[79.9289396,7.0396486],[79.9287062,7.0392821],[79.9282937,7.0388689],[79.9277406,7.0384907],[79.927266,7.0383101],[79.926451,7.0381193],[79.9259984,7.0380751],[79.9243194,7.0379566],[79.9239652,7.0378917],[79.923593,7.0378023],[79.9231242,7.0376129],[79.9225877,7.0373157],[79.9221169,7.0369334],[79.9217113,7.0364665],[79.92136,7.0358712],[79.9211243,7.035263],[79.9210472,7.0348548],[79.9210213,7.0345077],[79.9210189,7.03414],[79.9211669,7.0325951],[79.9211806,7.0323706]]}},{"type":"Feature","id":"way/50127295","properties":{"id":"way/50127295","osmId":50127295,"osmType":"way","name":"Main Line","nameSi":null,"nameTa":null,"kind":"rail","gauge":"1676","electrified":null},"geometry":{"type":"LineString","coordinates":[[79.9862224,7.083433],[79.9860505,7.083173]]}},{"type":"Feature","id":"way/50307690","properties":{"id":"way/50307690","osmId":50307690,"osmType":"way","name":"Kochchikade Railway Bridge","nameSi":null,"nameTa":null,"kind":"rail","gauge":"1676","electrified":"no"},"geometry":{"type":"LineString","coordinates":[[79.8593826,7.2694842],[79.8596132,7.2703537]]}},{"type":"Feature","id":"way/50307691","properties":{"id":"way/50307691","osmId":50307691,"osmType":"way","name":"Puttalam Line","nameSi":null,"nameTa":null,"kind":"rail","gauge":"1676","electrified":"no"},"geometry":{"type":"LineString","coordinates":[[79.8596132,7.2703537],[79.8601444,7.2723671],[79.8602739,7.2732544],[79.8603115,7.2740022],[79.860287,7.2765535],[79.8602837,7.2806581],[79.8602402,7.2855577],[79.8602304,7.2868184],[79.8602961,7.2913207]]}},{"type":"Feature","id":"way/50738688","properties":{"id":"way/50738688","osmId":50738688,"osmType":"way","name":"Kolonnawa Oil Storage Line","nameSi":null,"nameTa":null,"kind":"rail","gauge":"1067","electrified":null},"geometry":{"type":"LineString","coordinates":[[79.8898347,6.9284317],[79.8889794,6.9284218],[79.8870092,6.9283896],[79.8869463,6.9283894],[79.8862834,6.928514],[79.8860744,6.9285751],[79.8855339,6.9288243],[79.885043,6.9291214],[79.8849274,6.9292324],[79.8845889,6.9295575],[79.8843738,6.9298525],[79.8842067,6.9301128],[79.8838945,6.9307736],[79.883647,6.9313327],[79.8834683,6.931769],[79.8834066,6.9321829],[79.8834422,6.9326043],[79.8834773,6.9330203],[79.8836524,6.9334699],[79.8838428,6.9338711],[79.8840938,6.9342428],[79.8845879,6.9346538],[79.8848522,6.9348329],[79.8863169,6.9356881],[79.8867385,6.9360177],[79.8869611,6.936303],[79.8870964,6.9366092],[79.887176,6.9368808],[79.887217,6.9371832],[79.8871788,6.9377144],[79.8871079,6.9379511],[79.8869139,6.9382839],[79.8842918,6.941931],[79.8841989,6.9421521],[79.8841755,6.9423986],[79.884215,6.9427751],[79.8843461,6.9431559]]}},{"type":"Feature","id":"way/51193204","properties":{"id":"way/51193204","osmId":51193204,"osmType":"way","name":"Port Line","nameSi":null,"nameTa":null,"kind":"rail","gauge":"1676","electrified":"no"},"geometry":{"type":"LineString","coordinates":[[79.8853102,6.9450283],[79.8854367,6.9452846],[79.8854864,6.945415],[79.885534,6.9456014],[79.8855595,6.9458005],[79.8855682,6.9462404],[79.8855461,6.9466252],[79.8854767,6.9470076],[79.8853582,6.9473905],[79.885247,6.9476243],[79.8851473,6.9478202],[79.884928,6.9481423],[79.8848466,6.9482396],[79.8847528,6.9483345],[79.8845677,6.9485076],[79.8844621,6.9486075],[79.8827114,6.950126]]}},{"type":"Feature","id":"way/62005148","properties":{"id":"way/62005148","osmId":62005148,"osmType":"way","name":"Mihintale Branch","nameSi":null,"nameTa":null,"kind":"rail","gauge":"1676","electrified":null},